Business Name,Address Line 1,Address Line 2,Address Line 3,Postcode,Business Type ID,Business Type Description,Food Hygiene Rating Scheme ID,Food Hygiene Rating Scheme Type,Hygiene Score,Structural Score,Confidence In Management Score,Rating Value,Rating Date,New Rating Pending,Local Authority Business ID,Local Authority Code,Local Authority Name,Local Authority Email Address,Local Authority Website,Ward Code,Ward Name,Easting,Northing,Longitude,Latitude,Spatial Accuracy,Last Uploaded,Location,Socrata ID
Leon,,77 Kingsway,,WC2B 6SR,1,Restaurant/Cafe/Canteen,781858,FHRS,15,10,10,2,21/07/2015,False,83388,506,Camden,planningandpublicprotection@camden.gov.uk,http://www.camden.gov.uk,E05000138,Holborn and Covent Garden,530567,181332,-0.119723,51.51584,Unknown,08/05/2016,"(51.51584, -0.119723)",1306
Loaf,,93      Tottenham Court Road,,W1T 4HL,1,Restaurant/Cafe/Canteen,470853,FHRS,10,5,10,3,01/08/2012,False,73815,506,Camden,planningandpublicprotection@camden.gov.uk,http://www.camden.gov.uk,E05000129,Bloomsbury,529416,181987,-0.136047,51.521991,Unknown,08/05/2016,"(51.521991, -0.136047)",1325
Methodist International Centre,,81-103      Euston Street,London,NW1 2EZ,1,Restaurant/Cafe/Canteen,426468,FHRS,5,5,5,5,20/03/2014,False,8483,506,Camden,planningandpublicprotection@camden.gov.uk,http://www.camden.gov.uk,E05000142,Regent's Park,529404,182507,-0.136029,51.526667,Unknown,08/05/2016,"(51.526667, -0.136029)",1472
Mems Cafe,,383      Kentish Town Road,,NW5 2TJ,1,Restaurant/Cafe/Canteen,571647,FHRS,5,10,10,3,17/03/2015,False,76862,506,Camden,planningandpublicprotection@camden.gov.uk,http://www.camden.gov.uk,E05000139,Kentish Town,528980,185137,-0.141189,51.550399,Unknown,08/05/2016,"(51.550399, -0.141189)",1467
Mr Michael Graney,,New Turnstile,London,WC2A 3HP,4613,Retailers - other,424975,FHRS,5,5,5,5,26/07/2010,False,42734,506,Camden,planningandpublicprotection@camden.gov.uk,http://www.camden.gov.uk,E05000138,Holborn and Covent Garden,530614,181492,-0.118987,51.517259,Unknown,08/05/2016,"(51.517259, -0.118987)",1520
Honest Burgers,,34a Camden Lock Place,,NW1 8AL,7844,Takeaway/sandwich shop,746328,FHRS,15,5,20,1,11/02/2016,False,80232,506,Camden,planningandpublicprotection@camden.gov.uk,http://www.camden.gov.uk,E05000130,Camden Town with Primrose Hill,528679,184140,-0.145892,51.541508,Unknown,08/05/2016,"(51.541508, -0.145892)",1078
Indian Food,703 The Stables Market,Chalk Farm Road,,NW1 8AH,7844,Takeaway/sandwich shop,470879,FHRS,5,10,5,4,19/03/2015,False,74638,506,Camden,planningandpublicprotection@camden.gov.uk,http://www.camden.gov.uk,E05000130,Camden Town with Primrose Hill,528574,184192,-0.147372,51.541999,Unknown,08/05/2016,"(51.541999, -0.147372)",1121
News Express,,56      Red Lion Street,London,WC1R 4PD,4613,Retailers - other,425122,FHRS,5,5,5,5,14/08/2008,False,48441,506,Camden,planningandpublicprotection@camden.gov.uk,http://www.camden.gov.uk,E05000138,Holborn and Covent Garden,530726,181723,-0.117288,51.519309,Unknown,08/05/2016,"(51.519309, -0.117288)",1573
Nicolas,,206      Haverstock Hill,London,NW3 2AG,4613,Retailers - other,425609,FHRS,0,5,0,5,04/09/2012,False,58201,506,Camden,planningandpublicprotection@camden.gov.uk,http://www.camden.gov.uk,E05000135,Hampstead Town,527326,185152,-0.165025,51.550909,Unknown,08/05/2016,"(51.550909, -0.165025)",1578
Oxfam Bookshop,,47      Highgate High Street,London,N6 5JX,4613,Retailers - other,424003,FHRS,,,,Exempt,29/04/2009,False,1894,506,Camden,planningandpublicprotection@camden.gov.uk,http://www.camden.gov.uk,E05000137,Highgate,528380,187404,-0.149011,51.5709,Unknown,08/05/2016,"(51.5709, -0.149011)",1654
Baxter Storey,Euston House,24      Eversholt Street,London,NW1 1DB,1,Restaurant/Cafe/Canteen,425433,FHRS,5,0,0,5,27/07/2010,False,55837,506,Camden,planningandpublicprotection@camden.gov.uk,http://www.camden.gov.uk,E05000143,St Pancras and Somers Town,529695,182728,-0.131756,51.528578,Unknown,08/05/2016,"(51.528578, -0.131756)",171
Pineapple Thai Kitchen,,51 Leverton Street,,NW5 2NX,7841,Other catering premises,708540,FHRS,10,5,5,4,08/03/2016,False,82155,506,Camden,planningandpublicprotection@camden.gov.uk,http://www.camden.gov.uk,E05000139,Kentish Town,529085,185484,-0.139534,51.553493,Unknown,08/05/2016,"(51.553493, -0.139534)",1724
Pizza Hut,Premier House,150      Southampton Row,London,WC1B 5BQ,1,Restaurant/Cafe/Canteen,424384,FHRS,0,0,0,5,18/03/2011,False,22492,506,Camden,planningandpublicprotection@camden.gov.uk,http://www.camden.gov.uk,,,,,,,Unknown,08/05/2016,,1741
Baxter Storey Mid City Place,,71      High Holborn,,WC1V 6EA,1,Restaurant/Cafe/Canteen,425627,FHRS,5,0,0,5,19/10/2011,False,58472,506,Camden,planningandpublicprotection@camden.gov.uk,http://www.camden.gov.uk,E05000138,Holborn and Covent Garden,530809,181633,-0.116112,51.518481,Unknown,08/05/2016,"(51.518481, -0.116112)",177
Saatchi & Saatchi,,80 Charlotte Street,,W1T 4QP,1,Restaurant/Cafe/Canteen,759387,FHRS,5,10,10,3,09/03/2015,False,83443,506,Camden,planningandpublicprotection@camden.gov.uk,http://www.camden.gov.uk,E05000129,Bloomsbury,529352,181872,-0.137025,51.520972,Unknown,08/05/2016,"(51.520972, -0.137025)",1948
GreenLight Pharmacy,,62-64      Hampstead Road,London,NW1 2NU,4613,Retailers - other,426272,FHRS,,,,Exempt,11/02/2012,False,7031,506,Camden,planningandpublicprotection@camden.gov.uk,http://www.camden.gov.uk,E05000142,Regent's Park,529245,182505,-0.138321,51.526677,Unknown,08/05/2016,"(51.526677, -0.138321)",970
Greenberry cafe,,101      Regent's Park Road,,NW1 8UR,1,Restaurant/Cafe/Canteen,551140,FHRS,10,10,10,3,11/11/2014,False,75798,506,Camden,planningandpublicprotection@camden.gov.uk,http://www.camden.gov.uk,E05000130,Camden Town with Primrose Hill,527953,184198,-0.156334,51.542194,Unknown,08/05/2016,"(51.542194, -0.156334)",971
Greenland Butchers,,10      Greenland Road,London,NW1 0AY,4613,Retailers - other,424234,FHRS,10,10,10,3,30/10/2015,False,21251,506,Camden,planningandpublicprotection@camden.gov.uk,http://www.camden.gov.uk,E05000130,Camden Town with Primrose Hill,529072,183920,-0.140309,51.539433,Unknown,08/05/2016,"(51.539433, -0.140309)",972
Greenland News,,14      Greenland Road,London,NW1 0AY,4613,Retailers - other,425956,FHRS,5,10,10,3,20/09/2010,False,6238,506,Camden,planningandpublicprotection@camden.gov.uk,http://www.camden.gov.uk,E05000130,Camden Town with Primrose Hill,529072,183920,-0.140309,51.539433,Unknown,08/05/2016,"(51.539433, -0.140309)",973
Greenlight Pharmacy,,6      Cricklewood Broadway,London,NW2 3HD,4613,Retailers - other,425264,FHRS,,,,Exempt,13/07/2009,False,52931,506,Camden,planningandpublicprotection@camden.gov.uk,http://www.camden.gov.uk,E05000132,Fortune Green,524175,185291,-0.210398,51.55286,Unknown,08/05/2016,"(51.55286, -0.210398)",974
Greens of Glastonbury Cheese,,Malet Street,London,WC1E 7JG,7844,Takeaway/sandwich shop,426337,FHRS,5,0,0,5,10/11/2011,False,71725,506,Camden,planningandpublicprotection@camden.gov.uk,http://www.camden.gov.uk,E05000129,Bloomsbury,529692,182124,-0.132021,51.523159,Unknown,08/05/2016,"(51.523159, -0.132021)",975
Greetings,,251      Kentish Town Road,London,NW5 2JT,4613,Retailers - other,624306,FHRS,,,,Exempt,22/11/2013,False,56331,506,Camden,planningandpublicprotection@camden.gov.uk,http://www.camden.gov.uk,E05000139,Kentish Town,528963,184891,-0.14151,51.548192,Unknown,08/05/2016,"(51.548192, -0.14151)",976
Greggs,,137      Camden High Street,London,NW1 7JR,7844,Takeaway/sandwich shop,426343,FHRS,5,0,5,5,30/01/2012,False,71800,506,Camden,planningandpublicprotection@camden.gov.uk,http://www.camden.gov.uk,E05000130,Camden Town with Primrose Hill,528959,183682,-0.142024,51.537328,Unknown,08/05/2016,"(51.537328, -0.142024)",978
Greggs,,81      Leather Lane,London,EC1N 7TS,7844,Takeaway/sandwich shop,426537,FHRS,0,5,5,5,19/03/2014,False,9549,506,Camden,planningandpublicprotection@camden.gov.uk,http://www.camden.gov.uk,E05000138,Holborn and Covent Garden,531203,181969,-0.110312,51.521409,Unknown,08/05/2016,"(51.521409, -0.110312)",979
Aramark Ltd,Hughes Parry Hall,Cartwright Gardens,London,WC1H 9EF,7845,School/college/university,424106,FHRS,0,5,0,5,09/08/2012,False,20397,506,Camden,planningandpublicprotection@camden.gov.uk,http://www.camden.gov.uk,E05000141,King's Cross,530048,182618,-0.126724,51.527517,Unknown,08/05/2016,"(51.527517, -0.126724)",98
Greggs PLC,,92      Tottenham Court Road,London,W1T 4TL,7841,Other catering premises,426325,FHRS,0,5,0,5,02/11/2011,False,71622,506,Camden,planningandpublicprotection@camden.gov.uk,http://www.camden.gov.uk,E05000129,Bloomsbury,529416,181987,-0.136047,51.521991,Unknown,08/05/2016,"(51.521991, -0.136047)",980
Greggs Plc,,311      Kentish Town Road,London,NW5 2TJ,7844,Takeaway/sandwich shop,423907,FHRS,5,5,5,5,12/02/2013,False,14410,506,Camden,planningandpublicprotection@camden.gov.uk,http://www.camden.gov.uk,E05000139,Kentish Town,528980,185137,-0.141189,51.550399,Unknown,08/05/2016,"(51.550399, -0.141189)",981
Grenville House Hotel,,4      Guilford Street,London,WC1N 1DR,7842,Hotel/bed & breakfast/guest house,424766,FHRS,10,15,10,2,15/03/2016,False,33298,506,Camden,planningandpublicprotection@camden.gov.uk,http://www.camden.gov.uk,E05000138,Holborn and Covent Garden,530781,182263,-0.116282,51.524149,Unknown,08/05/2016,"(51.524149, -0.116282)",982
Grill Market Holborn,,10 Theobald's Road,,WC1X 8PN,1,Restaurant/Cafe/Canteen,688206,FHRS,15,10,10,2,05/11/2015,False,80637,506,Camden,planningandpublicprotection@camden.gov.uk,http://www.camden.gov.uk,E05000138,Holborn and Covent Garden,530954,181975,-0.113896,51.521529,Unknown,08/05/2016,"(51.521529, -0.113896)",983
Starbucks,"Northern Ticket Hall, Kings Cross And St Pancras Underground Station",Euston Road,,N1 9AP,7844,Takeaway/sandwich shop,653515,FHRS,5,5,10,4,03/02/2014,False,79930,506,Camden,planningandpublicprotection@camden.gov.uk,http://www.camden.gov.uk,,,,,,,Unknown,08/05/2016,,2137
Sticky Fingers and Pizza and Falafel,,,,,7846,Mobile caterer,639843,FHRS,5,5,5,5,20/02/2014,False,79381,506,Camden,planningandpublicprotection@camden.gov.uk,http://www.camden.gov.uk,,,,,,,Unknown,08/05/2016,,2166
Swiss Cottage School,Swiss Cottage School,80      Avenue Road,,NW8 6HX,7845,School/college/university,543110,FHRS,0,0,5,5,26/02/2016,False,20080,506,Camden,planningandpublicprotection@camden.gov.uk,http://www.camden.gov.uk,,,,,,,Unknown,08/05/2016,,2228
Thai Food,"Pitch 6, Earlham Street Market",Earlham Street,London,,7846,Mobile caterer,425840,FHRS,5,10,5,4,26/04/2012,False,61469,506,Camden,planningandpublicprotection@camden.gov.uk,http://www.camden.gov.uk,,,,,,,Unknown,08/05/2016,,2283
Travelodge,,10      Drury Lane,London,WC2B 5RE,7842,Hotel/bed & breakfast/guest house,423928,FHRS,5,5,5,5,23/01/2013,False,14756,506,Camden,planningandpublicprotection@camden.gov.uk,http://www.camden.gov.uk,E05000138,Holborn and Covent Garden,530259,181322,-0.124149,51.515813,Unknown,08/05/2016,"(51.515813, -0.124149)",2582
Trends Wine Merchants,,65      Mill Lane,London,NW6 1NB,4613,Retailers - other,424626,FHRS,,,,Exempt,17/06/2015,False,2874,506,Camden,planningandpublicprotection@camden.gov.uk,http://www.camden.gov.uk,E05000132,Fortune Green,525119,185229,-0.196798,51.552094,Unknown,08/05/2016,"(51.552094, -0.196798)",2586
Two Brewers,,40      Monmouth Street,London,WC2H 9EP,7843,Pub/bar/nightclub,423825,FHRS,0,5,0,5,13/02/2014,False,13363,506,Camden,planningandpublicprotection@camden.gov.uk,http://www.camden.gov.uk,E05000138,Holborn and Covent Garden,530047,181033,-0.127323,51.513265,Unknown,08/05/2016,"(51.513265, -0.127323)",2602
Upper Crust  Barrier Line,"Unit 23, Euston Station",Eversholt Street,London,NW1 2DU,7844,Takeaway/sandwich shop,424182,FHRS,5,5,0,5,14/01/2012,False,20827,506,Camden,planningandpublicprotection@camden.gov.uk,http://www.camden.gov.uk,E05000142,Regent's Park,529587,182735,-0.133309,51.528674,Unknown,08/05/2016,"(51.528674, -0.133309)",2615
Boots The Chemist Ltd,,40-42      Brunswick Centre,London,WC1N 1AE,4613,Retailers - other,426502,FHRS,5,10,0,4,02/10/2014,False,8889,506,Camden,planningandpublicprotection@camden.gov.uk,http://www.camden.gov.uk,E05000129,Bloomsbury,530240,182214,-0.124107,51.523842,Unknown,08/05/2016,"(51.523842, -0.124107)",263
Wagamama,"Unit 1, Kingswell",58-62      Heath Street,London,NW3 1EN,1,Restaurant/Cafe/Canteen,470819,FHRS,5,5,0,5,08/05/2012,False,70354,506,Camden,planningandpublicprotection@camden.gov.uk,http://www.camden.gov.uk,E05000135,Hampstead Town,526402,185805,-0.178096,51.556985,Unknown,08/05/2016,"(51.556985, -0.178096)",2658
Waitrose,,319-323      West End Lane,,NW6 1RP,7840,Retailers - supermarkets/hypermarkets,773817,FHRS,0,0,5,5,03/06/2015,False,78231,506,Camden,planningandpublicprotection@camden.gov.uk,http://www.camden.gov.uk,E05000145,West Hampstead,525421,185179,-0.192476,51.551578,Unknown,08/05/2016,"(51.551578, -0.192476)",2667
Wild Juicery UN,,16      Neal's Yard,,WC2H 9DP,1,Restaurant/Cafe/Canteen,485302,FHRS,5,5,10,4,03/12/2012,False,74664,506,Camden,planningandpublicprotection@camden.gov.uk,http://www.camden.gov.uk,E05000138,Holborn and Covent Garden,530109,181179,-0.126376,51.514571,Unknown,08/05/2016,"(51.514571, -0.126376)",2708
1a Children's Centre,,1A      Rosebery Avenue,London,EC1R 4RT,1,Restaurant/Cafe/Canteen,426524,FHRS,5,0,0,5,11/09/2015,False,9310,506,Camden,planningandpublicprotection@camden.gov.uk,http://www.camden.gov.uk,,,,,,,Unknown,08/05/2016,,3
Cafe Swiss,Swiss Cottage School,80 Avenue Road,,NW8 6HX,1,Restaurant/Cafe/Canteen,704081,FHRS,10,0,10,4,25/06/2014,False,81158,506,Camden,planningandpublicprotection@camden.gov.uk,http://www.camden.gov.uk,,,,,,,Unknown,08/05/2016,,393
Commonwealth Hall,Commonwealth Hall,1-11      Cartwright Gardens,London,WC1H 9EA,7842,Hotel/bed & breakfast/guest house,425923,FHRS,10,10,0,4,25/02/2012,False,622,506,Camden,planningandpublicprotection@camden.gov.uk,http://www.camden.gov.uk,,,,,,,Unknown,08/05/2016,,581
Anna Maes Southern Street Food,,,,,7846,Mobile caterer,554971,FHRS,5,5,5,5,30/05/2013,False,73174,506,Camden,planningandpublicprotection@camden.gov.uk,http://www.camden.gov.uk,,,,,,,Unknown,08/05/2016,,85
Global Food & News,,104      Eversholt Street,London,NW1 1BP,4613,Retailers - other,425722,FHRS,5,0,10,4,23/04/2009,False,60170,506,Camden,planningandpublicprotection@camden.gov.uk,http://www.camden.gov.uk,E05000143,St Pancras and Somers Town,529542,182935,-0.133884,51.530473,Unknown,08/05/2016,"(51.530473, -0.133884)",935
113 Restaurant & Bar,,111-113      Hampstead Road,London,NW1 3EE,1,Restaurant/Cafe/Canteen,424907,FHRS,15,10,20,1,14/07/2015,False,39608,506,Camden,planningandpublicprotection@camden.gov.uk,http://www.camden.gov.uk,E05000142,Regent's Park,529194,182650,-0.139002,51.528,Unknown,08/05/2016,"(51.528, -0.139002)",1
Greggs,,5      High Holborn,,WC1V 6DR,1,Restaurant/Cafe/Canteen,470891,FHRS,5,0,5,5,21/11/2012,False,75040,506,Camden,planningandpublicprotection@camden.gov.uk,http://www.camden.gov.uk,E05000138,Holborn and Covent Garden,531097,181643,-0.111974,51.518504,Unknown,08/05/2016,"(51.518504, -0.111974)",977
Grosvenor Casino Russell Square,,61-66      Russell Square,London,WC1B 5BA,7841,Other catering premises,426487,FHRS,10,5,5,4,12/02/2014,False,8778,506,Camden,planningandpublicprotection@camden.gov.uk,http://www.camden.gov.uk,E05000138,Holborn and Covent Garden,530244,182038,-0.124101,51.522251,Unknown,08/05/2016,"(51.522251, -0.124101)",984
Ground Floor Cafe - Food standards agency,Aviation House,125-129 Kingsway,,WC2B 6NH,1,Restaurant/Cafe/Canteen,720386,FHRS,0,5,0,5,21/11/2014,False,81819,506,Camden,planningandpublicprotection@camden.gov.uk,http://www.camden.gov.uk,E05000138,Holborn and Covent Garden,530503,181457,-0.120599,51.51697,Unknown,08/05/2016,"(51.51697, -0.120599)",985
Gulshaan Restaurant,,343      Kentish Town Road,London,NW5 2TJ,1,Restaurant/Cafe/Canteen,423910,FHRS,5,5,0,5,20/09/2012,False,14433,506,Camden,planningandpublicprotection@camden.gov.uk,http://www.camden.gov.uk,E05000139,Kentish Town,528980,185137,-0.141189,51.550399,Unknown,08/05/2016,"(51.550399, -0.141189)",992
Gupta Confectioners Ltd,,100      Drummond Street,London,NW1 2HN,4613,Retailers - other,426261,FHRS,15,10,10,2,13/10/2014,False,7014,506,Camden,planningandpublicprotection@camden.gov.uk,http://www.camden.gov.uk,E05000142,Regent's Park,529348,182570,-0.136813,51.527246,Unknown,08/05/2016,"(51.527246, -0.136813)",994
Guzels International Food,,175      Kentish Town Road,London,NW1 8PD,4613,Retailers - other,424891,FHRS,10,10,5,3,20/09/2010,False,3861,506,Camden,planningandpublicprotection@camden.gov.uk,http://www.camden.gov.uk,E05000139,Kentish Town,528940,184619,-0.141955,51.545753,Unknown,08/05/2016,"(51.545753, -0.141955)",995
H&W Catering Ltd,,1a      Montague Place,London,WC1E 7JW,1,Restaurant/Cafe/Canteen,426288,FHRS,5,0,5,5,26/01/2012,False,70959,506,Camden,planningandpublicprotection@camden.gov.uk,http://www.camden.gov.uk,E05000129,Bloomsbury,529938,181766,-0.128623,51.519877,Unknown,08/05/2016,"(51.519877, -0.128623)",996
H.V. Thomas (Chemist),,81      Mill Lane,London,NW6 1ND,4613,Retailers - other,424319,FHRS,,,,Exempt,29/01/2010,False,21969,506,Camden,planningandpublicprotection@camden.gov.uk,http://www.camden.gov.uk,E05000132,Fortune Green,525187,185236,-0.195829,51.552142,Unknown,08/05/2016,"(51.552142, -0.195829)",997
Habitat,The O2 Centre,255      Finchley Road,London,NW3 6LU,4613,Retailers - other,667800,FHRS,,,,Exempt,29/01/2013,False,55289,506,Camden,planningandpublicprotection@camden.gov.uk,http://www.camden.gov.uk,E05000145,West Hampstead,526196,184795,-0.181428,51.547954,Unknown,08/05/2016,"(51.547954, -0.181428)",998
Hakkasan,,8      Hanway Place,London,W1P 9DL,1,Restaurant/Cafe/Canteen,424885,FHRS,10,10,0,4,06/07/2015,False,38204,506,Camden,planningandpublicprotection@camden.gov.uk,http://www.camden.gov.uk,,,,,,,Unknown,08/05/2016,,999
Henry Burns,"Pitch 96, Leather Lane Market",Leather Lane,London,,4613,Retailers - other,424955,FHRS,5,5,5,5,05/11/2008,False,41749,506,Camden,planningandpublicprotection@camden.gov.uk,http://www.camden.gov.uk,,,,,,,Unknown,08/05/2016,,1044
Hook Restaurant,,63-65 Parkway,,NW1 7PP,1,Restaurant/Cafe/Canteen,773833,FHRS,5,5,10,4,18/06/2015,False,82181,506,Camden,planningandpublicprotection@camden.gov.uk,http://www.camden.gov.uk,E05000130,Camden Town with Primrose Hill,528722,183665,-0.145445,51.537229,Unknown,08/05/2016,"(51.537229, -0.145445)",1080
Humaira Tandoori Restaurant,,112      Judd Street,London,WC1H 9NT,1,Restaurant/Cafe/Canteen,424266,FHRS,10,10,10,3,04/07/2012,False,21556,506,Camden,planningandpublicprotection@camden.gov.uk,http://www.camden.gov.uk,E05000141,King's Cross,530177,182667,-0.124834,51.527919,Unknown,08/05/2016,"(51.527919, -0.124834)",1094
ITSU,,236      High Holborn,London,WC1V 7DS,1,Restaurant/Cafe/Canteen,425646,FHRS,0,5,0,5,23/03/2015,False,58831,506,Camden,planningandpublicprotection@camden.gov.uk,http://www.camden.gov.uk,,,,,,,Unknown,08/05/2016,,1103
Iceland Foods Ltd,Icelands Foods Ltd,100-104      Kilburn High Road,London,NW6 4HX,7840,Retailers - supermarkets/hypermarkets,425739,FHRS,10,0,0,4,09/07/2009,False,60330,506,Camden,planningandpublicprotection@camden.gov.uk,http://www.camden.gov.uk,,,,,,,Unknown,08/05/2016,,1111
Inland Revenue,Euston Tower,286      Euston Road,London,NW1 3BY,1,Restaurant/Cafe/Canteen,424175,FHRS,5,5,5,5,27/03/2013,False,20803,506,Camden,planningandpublicprotection@camden.gov.uk,http://www.camden.gov.uk,,,,,,,Unknown,08/05/2016,,1128
Ash Court Nursing Home,Ash Court,Ash Mews,London,NW5 2PW,5,Hospitals/Childcare/Caring Premises,424547,FHRS,0,0,5,5,01/03/2016,False,26242,506,Camden,planningandpublicprotection@camden.gov.uk,http://www.camden.gov.uk,E05000139,Kentish Town,529158,185374,-0.138522,51.552488,Unknown,08/05/2016,"(51.552488, -0.138522)",124
LMA Foods Ltd,,,,,4613,Retailers - other,425050,FHRS,,,,Exempt,18/11/2014,False,45860,506,Camden,planningandpublicprotection@camden.gov.uk,http://www.camden.gov.uk,,,,,,,Unknown,08/05/2016,,1250
Local Express,,322-326      Gray's Inn Road,,WC1X 8DD,4613,Retailers - other,606272,FHRS,10,5,20,1,16/10/2013,False,76167,506,Camden,planningandpublicprotection@camden.gov.uk,http://www.camden.gov.uk,,,,,,,Unknown,08/05/2016,,1327
Love Smoothies,,80-84      Charlotte Street,London,W1T 4QP,7844,Takeaway/sandwich shop,425119,FHRS,5,5,5,5,11/08/2008,False,48345,506,Camden,planningandpublicprotection@camden.gov.uk,http://www.camden.gov.uk,E05000129,Bloomsbury,529352,181873,-0.137025,51.520973,Unknown,08/05/2016,"(51.520973, -0.137025)",1356
M&M Catering Services,Street Record,Goods Way,,,1,Restaurant/Cafe/Canteen,728104,FHRS,10,10,10,3,05/09/2014,False,82065,506,Camden,planningandpublicprotection@camden.gov.uk,http://www.camden.gov.uk,,,,,,,Unknown,08/05/2016,,1368
Marchmont Market,,33-37      Marchmont Street,London,WC1N 1AA,4613,Retailers - other,426299,FHRS,10,5,5,4,22/12/2010,False,71275,506,Camden,planningandpublicprotection@camden.gov.uk,http://www.camden.gov.uk,,,,,,,Unknown,08/05/2016,,1404
Mediteranian Paella,,Brunswick Market Brunswick Cen,London,,7846,Mobile caterer,425989,FHRS,0,0,10,4,03/03/2012,False,63042,506,Camden,planningandpublicprotection@camden.gov.uk,http://www.camden.gov.uk,,,,,,,Unknown,08/05/2016,,1457
Moba,,53 Goodge Street,,W1T 1TG,1,Restaurant/Cafe/Canteen,759370,FHRS,5,5,10,4,26/03/2015,False,82910,506,Camden,planningandpublicprotection@camden.gov.uk,http://www.camden.gov.uk,E05000129,Bloomsbury,529418,181663,-0.136137,51.519079,Unknown,08/05/2016,"(51.519079, -0.136137)",1492
NBC Universal,,Central Saint Giles Piazza,,,1,Restaurant/Cafe/Canteen,446008,FHRS,5,5,5,5,22/08/2012,False,73538,506,Camden,planningandpublicprotection@camden.gov.uk,http://www.camden.gov.uk,,,,,,,Unknown,08/05/2016,,1534
Nick's Fine Foods,Brunswick Market,Brunswick Centre,London,,7846,Mobile caterer,425727,FHRS,10,5,10,3,22/03/2014,False,60219,506,Camden,planningandpublicprotection@camden.gov.uk,http://www.camden.gov.uk,,,,,,,Unknown,08/05/2016,,1577
Nonno Lino,,45      Goodge Street,London,W1T 1TB,1,Restaurant/Cafe/Canteen,426114,FHRS,10,10,5,3,12/09/2012,False,66862,506,Camden,planningandpublicprotection@camden.gov.uk,http://www.camden.gov.uk,E05000129,Bloomsbury,529437,181676,-0.135873,51.519183,Unknown,08/05/2016,"(51.519183, -0.135873)",1595
Notes,,1 Pancras Square,,N1C 4AG,1,Restaurant/Cafe/Canteen,765123,FHRS,5,5,10,4,05/05/2015,False,83765,506,Camden,planningandpublicprotection@camden.gov.uk,http://www.camden.gov.uk,,,,,,,Unknown,08/05/2016,,1610
Baxter Storey @ Edexcel,Enterprise House,190      High Holborn,London,WC1V 7BE,1,Restaurant/Cafe/Canteen,424942,FHRS,0,5,0,5,23/01/2013,False,41287,506,Camden,planningandpublicprotection@camden.gov.uk,http://www.camden.gov.uk,,,,,,,Unknown,08/05/2016,,175
Pomme De Pain,,260 Tottenham Court Road,,W1T 7RF,1,Restaurant/Cafe/Canteen,759355,FHRS,10,15,10,2,26/11/2014,False,82102,506,Camden,planningandpublicprotection@camden.gov.uk,http://www.camden.gov.uk,E05000129,Bloomsbury,529816,181490,-0.130481,51.517433,Unknown,08/05/2016,"(51.517433, -0.130481)",1761
Portuguese Gourmet,Eton Avenue Street Market,Eton Avenue,London,,4613,Retailers - other,842157,FHRS,0,5,0,5,14/01/2016,False,180420,506,Camden,planningandpublicprotection@camden.gov.uk,http://www.camden.gov.uk,,,,,,,Unknown,08/05/2016,,1770
Bear Necessities,,25      Gordon Street,London,WC1H 0AH,4613,Retailers - other,425229,FHRS,0,0,10,4,26/01/2015,False,51816,506,Camden,planningandpublicprotection@camden.gov.uk,http://www.camden.gov.uk,E05000129,Bloomsbury,529617,182364,-0.133013,51.525333,Unknown,08/05/2016,"(51.525333, -0.133013)",185
Red Sky Cafe  Holy Trinity Church,,120      Finchley Road,London,NW3 5JB,1,Restaurant/Cafe/Canteen,424878,FHRS,5,5,10,4,12/07/2012,False,38008,506,Camden,planningandpublicprotection@camden.gov.uk,http://www.camden.gov.uk,,,,,,,Unknown,08/05/2016,,1863
Red Spice,,1b Hawley Road,,NW1 8RP,7844,Takeaway/sandwich shop,865587,FHRS,20,15,30,0,23/03/2016,False,80223,506,Camden,planningandpublicprotection@camden.gov.uk,http://www.camden.gov.uk,E05000130,Camden Town with Primrose Hill,528853,184278,-0.143334,51.542708,Unknown,08/05/2016,"(51.542708, -0.143334)",1864
Rose and Crown,,71-73 Torriano Avenue,,NW5 2SG,7843,Pub/bar/nightclub,865591,FHRS,5,5,5,5,17/03/2015,False,83569,506,Camden,planningandpublicprotection@camden.gov.uk,http://www.camden.gov.uk,E05000139,Kentish Town,529553,185136,-0.13293,51.550259,Unknown,08/05/2016,"(51.550259, -0.13293)",1905
Royal College of Physicians,,11      St Andrew's Place,London,NW1 4LE,7845,School/college/university,424385,FHRS,0,5,0,5,13/05/2013,False,22493,506,Camden,planningandpublicprotection@camden.gov.uk,http://www.camden.gov.uk,E05000142,Regent's Park,528784,182391,-0.145018,51.525758,Unknown,08/05/2016,"(51.525758, -0.145018)",1919
Royal Peri Peri,,43      South End Road,,NW3 2QA,1,Restaurant/Cafe/Canteen,491337,FHRS,5,15,10,2,12/10/2015,False,75247,506,Camden,planningandpublicprotection@camden.gov.uk,http://www.camden.gov.uk,,,,,,,Unknown,08/05/2016,,1926
Sodexo,,1      Southampton Row,London,WC1V 6QA,1,Restaurant/Cafe/Canteen,426237,FHRS,5,0,0,5,08/11/2011,False,69790,506,Camden,planningandpublicprotection@camden.gov.uk,http://www.camden.gov.uk,,,,,,,Unknown,08/05/2016,,2065
M L Whitehorn,Pitch 2,Twyford Place,London,WC2,4613,Retailers - other,735892,FHRS,5,5,5,5,29/01/2015,False,24452,506,Camden,planningandpublicprotection@camden.gov.uk,http://www.camden.gov.uk,,,,,,,Unknown,08/05/2016,,1366
Sunrise,,111      Highgate Road,London,NW5 1TR,4613,Retailers - other,424382,FHRS,10,5,10,3,27/07/2010,False,2248,506,Camden,planningandpublicprotection@camden.gov.uk,http://www.camden.gov.uk,E05000137,Highgate,528668,185661,-0.145481,51.555179,Unknown,08/05/2016,"(51.555179, -0.145481)",2195
Sushi Hiroba,,50-54      Kingsway,London,WC2B 6EN,1,Restaurant/Cafe/Canteen,425210,FHRS,,,,5,21/05/2015,False,51378,506,Camden,planningandpublicprotection@camden.gov.uk,http://www.camden.gov.uk,,,,,,,Unknown,08/05/2016,,2216
Mai Sushi,,36-38      Chalton Street,London,NW1 1JB,1,Restaurant/Cafe/Canteen,425517,FHRS,10,10,10,3,14/09/2012,False,57029,506,Camden,planningandpublicprotection@camden.gov.uk,http://www.camden.gov.uk,E05000143,St Pancras and Somers Town,529838,182832,-0.129657,51.529488,Unknown,08/05/2016,"(51.529488, -0.129657)",1381
U select it limited,St Pancras International Station,Pancras Road,,NW1 2QL,1,Restaurant/Cafe/Canteen,632478,FHRS,5,5,10,4,17/01/2014,False,75039,506,Camden,planningandpublicprotection@camden.gov.uk,http://www.camden.gov.uk,,,,,,,Unknown,08/05/2016,,2603
Maison Blanc,,76      Hampstead High Street,London,NW3 1QX,4613,Retailers - other,425683,FHRS,0,5,5,5,04/03/2012,False,59442,506,Camden,planningandpublicprotection@camden.gov.uk,http://www.camden.gov.uk,E05000135,Hampstead Town,526456,185668,-0.177381,51.555742,Unknown,08/05/2016,"(51.555742, -0.177381)",1382
Upper crust,"Upper Crust Main Concourse, Kings Cross Railway Station",Euston Road,,N1 9AP,7844,Takeaway/sandwich shop,470860,FHRS,5,5,5,5,26/04/2012,False,73986,506,Camden,planningandpublicprotection@camden.gov.uk,http://www.camden.gov.uk,,,,,,,Unknown,08/05/2016,,2616
Vinotecca,,1 Pancras Square,,N1C 4AG,1,Restaurant/Cafe/Canteen,759330,FHRS,10,10,10,3,23/04/2015,False,80055,506,Camden,planningandpublicprotection@camden.gov.uk,http://www.camden.gov.uk,,,,,,,Unknown,08/05/2016,,2638
Wagamama,,123      Kingsway,,WC2B 6PQ,1,Restaurant/Cafe/Canteen,516225,FHRS,5,5,5,5,07/02/2013,False,73568,506,Camden,planningandpublicprotection@camden.gov.uk,http://www.camden.gov.uk,,,,,,,Unknown,08/05/2016,,2660
Waitrose Limited,,227-228      Tottenham Court Road,London,W1T 7QE,7840,Retailers - supermarkets/hypermarkets,426238,FHRS,0,0,0,5,30/07/2012,False,69797,506,Camden,planningandpublicprotection@camden.gov.uk,http://www.camden.gov.uk,,,,,,,Unknown,08/05/2016,,2668
Banana Tree,,237-239      West End Lane,London,NW6 1XN,1,Restaurant/Cafe/Canteen,424665,FHRS,10,10,5,3,13/01/2009,False,3039,506,Camden,planningandpublicprotection@camden.gov.uk,http://www.camden.gov.uk,E05000145,West Hampstead,525476,184987,-0.191738,51.54984,Unknown,08/05/2016,"(51.54984, -0.191738)",150
Wine Cellar,,224      Kilburn High Road,London,NW6 4JP,4613,Retailers - other,424946,FHRS,5,0,0,5,15/08/2008,False,4139,506,Camden,planningandpublicprotection@camden.gov.uk,http://www.camden.gov.uk,E05000140,Kilburn,525063,184131,-0.198009,51.542239,Unknown,08/05/2016,"(51.542239, -0.198009)",2739
Yialousa Greek Taverna,,18      Woburn Place,London,WC1H 0LU,1,Restaurant/Cafe/Canteen,423979,FHRS,10,5,10,3,27/02/2012,False,1747,506,Camden,planningandpublicprotection@camden.gov.uk,http://www.camden.gov.uk,,,,,,,Unknown,08/05/2016,,2761
British Home Stores plc,,132      Hampstead Road,London,NW1 2PS,4613,Retailers - other,426089,FHRS,5,0,10,4,19/08/2008,False,6605,506,Camden,planningandpublicprotection@camden.gov.uk,http://www.camden.gov.uk,,,,,,,Unknown,08/05/2016,,304
Cafe Mode,,170a-171      Drury Lane,London,WC2B 5PL,1,Restaurant/Cafe/Canteen,448452,FHRS,10,5,5,4,25/06/2013,False,73460,506,Camden,planningandpublicprotection@camden.gov.uk,http://www.camden.gov.uk,,,,,,,Unknown,08/05/2016,,372
Costa,"Unit 3-4, Kings Cross Station",Euston Road,London,N1 9AP,7844,Takeaway/sandwich shop,425784,FHRS,5,10,0,4,25/08/2015,False,60910,506,Camden,planningandpublicprotection@camden.gov.uk,http://www.camden.gov.uk,,,,,,,Unknown,08/05/2016,,602
Baxter Storey  Transport For London,Templar House,81-87      High Holborn,,WC1V 6NU,1,Restaurant/Cafe/Canteen,571660,FHRS,5,0,0,5,28/03/2013,False,77024,506,Camden,planningandpublicprotection@camden.gov.uk,http://www.camden.gov.uk,E05000138,Holborn and Covent Garden,530611,181593,-0.118979,51.518167,Unknown,08/05/2016,"(51.518167, -0.118979)",174
All Bar One,,40      Melton Street,,NW1 2EE,7843,Pub/bar/nightclub,639836,FHRS,0,0,0,5,25/02/2014,False,77426,506,Camden,planningandpublicprotection@camden.gov.uk,http://www.camden.gov.uk,,,,,,,Unknown,08/05/2016,,68
Dominoes Pizza,,166      High Holborn,London,WC1V 6TT,1,Restaurant/Cafe/Canteen,426145,FHRS,0,5,5,5,14/08/2012,False,67816,506,Camden,planningandpublicprotection@camden.gov.uk,http://www.camden.gov.uk,,,,,,,Unknown,08/05/2016,,725
Fortnum & Mason,"Unit 1a Ticket Office, St Pancras International Station",Pancras Road,,NW1 2QL,1,Restaurant/Cafe/Canteen,628482,FHRS,5,5,5,5,11/01/2014,False,77995,506,Camden,planningandpublicprotection@camden.gov.uk,http://www.camden.gov.uk,,,,,,,Unknown,08/05/2016,,881
Garfunkels,,267      Tottenham Court Road,London,W1T 7RH,1,Restaurant/Cafe/Canteen,425826,FHRS,5,0,0,5,16/09/2015,False,61305,506,Camden,planningandpublicprotection@camden.gov.uk,http://www.camden.gov.uk,,,,,,,Unknown,08/05/2016,,912
Pret a Manger,,64      New Oxford Street,London,WC1A 1EU,7844,Takeaway/sandwich shop,426111,FHRS,0,5,0,5,11/02/2008,False,66797,506,Camden,planningandpublicprotection@camden.gov.uk,http://www.camden.gov.uk,E05000129,Bloomsbury,530019,181451,-0.127558,51.517036,Unknown,08/05/2016,"(51.517036, -0.127558)",1800
Ginger & White,,4a-5a      Perrin's Court,London,NW3 1QR,1,Restaurant/Cafe/Canteen,425812,FHRS,0,10,5,4,09/05/2012,False,61126,506,Camden,planningandpublicprotection@camden.gov.uk,http://www.camden.gov.uk,,,,,,,Unknown,08/05/2016,,927
Giraffe Stop,,Unit M2/3      Kings Cross Station,,N1 9AP,1,Restaurant/Cafe/Canteen,426353,FHRS,5,5,5,5,08/12/2015,False,72189,506,Camden,planningandpublicprotection@camden.gov.uk,http://www.camden.gov.uk,,,,,,,Unknown,08/05/2016,,934
A & H Eastern Halal Food,,227      Gray's Inn Road,London,WC1X 8RH,4613,Retailers - other,426412,FHRS,10,10,5,3,20/09/2010,False,7670,506,Camden,planningandpublicprotection@camden.gov.uk,http://www.camden.gov.uk,E05000141,King's Cross,530586,182616,-0.11896,51.527366,Unknown,08/05/2016,"(51.527366, -0.11896)",10
Archipelago,,110      Whitfield Street,London,W1T 5ED,1,Restaurant/Cafe/Canteen,426444,FHRS,0,0,0,5,21/03/2011,False,8181,506,Camden,planningandpublicprotection@camden.gov.uk,http://www.camden.gov.uk,E05000129,Bloomsbury,529279,182121,-0.137972,51.523218,Unknown,08/05/2016,"(51.523218, -0.137972)",100
Hampstead Cricket Club,Hampstead Cricket Club,Lymington Road,London,NW6 1HZ,7843,Pub/bar/nightclub,424300,FHRS,10,5,10,3,26/08/2010,False,21853,506,Camden,planningandpublicprotection@camden.gov.uk,http://www.camden.gov.uk,E05000145,West Hampstead,525693,184930,-0.188644,51.54928,Unknown,08/05/2016,"(51.54928, -0.188644)",1004
Hampstead Food and Wine,,200      West End Lane,London,NW6 1SG,4613,Retailers - other,424657,FHRS,5,10,10,3,07/02/2014,False,3011,506,Camden,planningandpublicprotection@camden.gov.uk,http://www.camden.gov.uk,E05000145,West Hampstead,525516,184985,-0.191176,51.549805,Unknown,08/05/2016,"(51.549805, -0.191176)",1005
Hampstead Health Shop,,57      Hampstead High Street,London,NW3 1QH,4613,Retailers - other,424515,FHRS,5,5,5,5,28/05/2008,False,2511,506,Camden,planningandpublicprotection@camden.gov.uk,http://www.camden.gov.uk,E05000135,Hampstead Town,526394,185724,-0.178241,51.55625,Unknown,08/05/2016,"(51.55625, -0.178241)",1006
Hampstead Heath Pharmacy,,35      South End Road,London,NW3 2PY,4613,Retailers - other,424556,FHRS,,,,Exempt,11/08/2008,False,2642,506,Camden,planningandpublicprotection@camden.gov.uk,http://www.camden.gov.uk,E05000135,Hampstead Town,527225,185602,-0.166305,51.554967,Unknown,08/05/2016,"(51.554967, -0.166305)",1007
Hampstead Hill School,Hampstead Hill Preparatory Sch,Pond Street,London,NW3 2PP,7845,School/college/university,424346,FHRS,0,0,5,5,09/01/2015,False,22190,506,Camden,planningandpublicprotection@camden.gov.uk,http://www.camden.gov.uk,E05000135,Hampstead Town,527085,185400,-0.168396,51.553192,Unknown,08/05/2016,"(51.553192, -0.168396)",1008
Hampstead Kiosk,Pitch Outside Hampstead Underg,Hampstead High Street,London,,7846,Mobile caterer,632472,FHRS,5,5,10,4,28/01/2014,False,59451,506,Camden,planningandpublicprotection@camden.gov.uk,http://www.camden.gov.uk,,,,,,,Unknown,08/05/2016,,1009
Architectural Assoc Inc,,34-36      Bedford Square,London,WC1B 3EG,1,Restaurant/Cafe/Canteen,423698,FHRS,5,5,5,5,16/03/2012,False,10884,506,Camden,planningandpublicprotection@camden.gov.uk,http://www.camden.gov.uk,E05000129,Bloomsbury,529803,181564,-0.130642,51.518093,Unknown,08/05/2016,"(51.518093, -0.130642)",101
Hampstead Newsagents,,3      Holly Hill,London,NW3 6QN,4613,Retailers - other,424491,FHRS,10,10,10,3,25/07/2012,False,2452,506,Camden,planningandpublicprotection@camden.gov.uk,http://www.camden.gov.uk,E05000133,Frognal and Fitzjohns,526341,185785,-0.178997,51.556819,Unknown,08/05/2016,"(51.556819, -0.178997)",1010
Hampstead Parochial CE Primary,Hampstead Parochial School,Holly Bush Vale,London,NW3 6TX,7845,School/college/university,424495,FHRS,0,0,5,5,23/05/2012,False,2460,506,Camden,planningandpublicprotection@camden.gov.uk,http://www.camden.gov.uk,E05000133,Frognal and Fitzjohns,526338,185744,-0.179041,51.556451,Unknown,08/05/2016,"(51.556451, -0.179041)",1011
Hampstead S.P.O.,Hampstead Delivery Office,Shepherd's Walk,London,NW3 5UF,1,Restaurant/Cafe/Canteen,424376,FHRS,0,5,0,5,17/02/2010,False,22410,506,Camden,planningandpublicprotection@camden.gov.uk,http://www.camden.gov.uk,E05000135,Hampstead Town,526702,185515,-0.173876,51.554303,Unknown,08/05/2016,"(51.554303, -0.173876)",1012
Hampstead School Of English,,551-557      Finchley Road,London,NW3 7BJ,7845,School/college/university,423893,FHRS,5,0,10,4,06/08/2009,False,14290,506,Camden,planningandpublicprotection@camden.gov.uk,http://www.camden.gov.uk,E05000132,Fortune Green,525202,185739,-0.19542,51.556659,Unknown,08/05/2016,"(51.556659, -0.19542)",1013
Hampstead Sea Foods UK Ltd,,78      Hampstead High Street,London,NW3 1RE,4613,Retailers - other,424454,FHRS,5,5,10,4,10/03/2015,False,23635,506,Camden,planningandpublicprotection@camden.gov.uk,http://www.camden.gov.uk,E05000135,Hampstead Town,526534,185642,-0.176266,51.555482,Unknown,08/05/2016,"(51.555482, -0.176266)",1014
Hampstead Supermarket,,3      Elm Terrace,London,NW3 2LL,4613,Retailers - other,424160,FHRS,10,10,10,3,24/09/2014,False,20731,506,Camden,planningandpublicprotection@camden.gov.uk,http://www.camden.gov.uk,E05000134,Gospel Oak,527349,185542,-0.164539,51.5544,Unknown,08/05/2016,"(51.5544, -0.164539)",1016
Hampstead Tea Rooms,,9      South End Road,London,NW3 2PT,1,Restaurant/Cafe/Canteen,424551,FHRS,10,10,10,3,25/03/2015,False,2630,506,Camden,planningandpublicprotection@camden.gov.uk,http://www.camden.gov.uk,E05000135,Hampstead Town,527252,185548,-0.165949,51.554476,Unknown,08/05/2016,"(51.554476, -0.165949)",1017
Hampstead Theatre,,Eton Avenue,London,NW3 3EL,1,Restaurant/Cafe/Canteen,424960,FHRS,10,10,10,3,26/02/2014,False,41906,506,Camden,planningandpublicprotection@camden.gov.uk,http://www.camden.gov.uk,E05000128,Belsize,527397,184511,-0.16422,51.545124,Unknown,08/05/2016,"(51.545124, -0.16422)",1018
HanKang Korean Restaurant,,16      Hanway Street,London,W1T 1UE,1,Restaurant/Cafe/Canteen,423795,FHRS,5,10,10,3,02/12/2013,False,12936,506,Camden,planningandpublicprotection@camden.gov.uk,http://www.camden.gov.uk,E05000129,Bloomsbury,529722,181438,-0.131841,51.516979,Unknown,08/05/2016,"(51.516979, -0.131841)",1019
Arepa & Co,,Camden Lock,London,,7844,Takeaway/sandwich shop,425236,FHRS,10,10,10,3,31/01/2010,False,52070,506,Camden,planningandpublicprotection@camden.gov.uk,http://www.camden.gov.uk,E05000130,Camden Town with Primrose Hill,528693,184095,-0.14569999277592,51.5410995483398,Unknown,08/05/2016,"(51.5410995483398, -0.14569999277592)",102
Hana,,351      West End Lane,,NW6 1LT,5,Hospitals/Childcare/Caring Premises,586843,FHRS,5,5,10,4,17/02/2016,False,78279,506,Camden,planningandpublicprotection@camden.gov.uk,http://www.camden.gov.uk,E05000132,Fortune Green,525474,185270,-0.19168,51.552384,Unknown,08/05/2016,"(51.552384, -0.19168)",1020
Hand Picked Shellfish Company,,Malet Street,London,,4613,Retailers - other,426349,FHRS,5,0,0,5,17/11/2011,False,71927,506,Camden,planningandpublicprotection@camden.gov.uk,http://www.camden.gov.uk,E05000129,Bloomsbury,529876,181856,-0.129469,51.520704,Unknown,08/05/2016,"(51.520704, -0.129469)",1021
Happy Veggie,,Brunswick Market Brunswick Cen,London,,7846,Mobile caterer,425890,FHRS,5,5,0,5,25/02/2012,False,61963,506,Camden,planningandpublicprotection@camden.gov.uk,http://www.camden.gov.uk,,,,,,,Unknown,08/05/2016,,1022
Hara,,231      Finchley Road,London,NW3 6LS,4613,Retailers - other,425121,FHRS,5,10,10,3,19/11/2010,False,48438,506,Camden,planningandpublicprotection@camden.gov.uk,http://www.camden.gov.uk,E05000145,West Hampstead,526269,184738,-0.18041,51.547426,Unknown,08/05/2016,"(51.547426, -0.18041)",1023
Hardel Fruiterers Ltd,,60      Red Lion Street,London,WC1R 4PD,4613,Retailers - other,424360,FHRS,,,,Exempt,13/08/2008,False,22293,506,Camden,planningandpublicprotection@camden.gov.uk,http://www.camden.gov.uk,E05000138,Holborn and Covent Garden,530726,181723,-0.117288,51.519309,Unknown,08/05/2016,"(51.519309, -0.117288)",1024
Hare & Tortoise,,11-13      Brunswick Centre,London,WC1N 1AF,7843,Pub/bar/nightclub,425417,FHRS,5,5,5,5,26/01/2012,False,55731,506,Camden,planningandpublicprotection@camden.gov.uk,http://www.camden.gov.uk,E05000129,Bloomsbury,530248,182328,-0.12395,51.524856,Unknown,08/05/2016,"(51.524856, -0.12395)",1025
Harley Street At University,The Uclh Cancer Centre,Huntley Street,,WC1E 6AG,1,Restaurant/Cafe/Canteen,717325,FHRS,5,0,5,5,08/12/2015,False,75026,506,Camden,planningandpublicprotection@camden.gov.uk,http://www.camden.gov.uk,E05000129,Bloomsbury,529601,182000,-0.133391,51.522066,Unknown,08/05/2016,"(51.522066, -0.133391)",1026
Harlingford Hotel,,61-63      Cartwright Gardens,London,WC1H 9EL,7842,Hotel/bed & breakfast/guest house,423936,FHRS,0,0,0,5,13/01/2010,False,14784,506,Camden,planningandpublicprotection@camden.gov.uk,http://www.camden.gov.uk,E05000141,King's Cross,530032,182476,-0.126993,51.526244,Unknown,08/05/2016,"(51.526244, -0.126993)",1027
Harmood Children Centre,Harmood Community Centre,1      Forge Place,London,NW1 8DQ,5,Hospitals/Childcare/Caring Premises,425414,FHRS,10,5,5,4,16/02/2016,False,55583,506,Camden,planningandpublicprotection@camden.gov.uk,http://www.camden.gov.uk,E05000136,Haverstock,528484,184564,-0.148534,51.545354,Unknown,08/05/2016,"(51.545354, -0.148534)",1028
Harry's Fine Food,,258      Kentish Town Road,London,NW5 2AA,4613,Retailers - other,423901,FHRS,10,10,10,3,25/03/2015,False,14372,506,Camden,planningandpublicprotection@camden.gov.uk,http://www.camden.gov.uk,E05000139,Kentish Town,529030,185096,-0.140483,51.550019,Unknown,08/05/2016,"(51.550019, -0.140483)",1029
Argos Distributers Ltd,5b Harben Parade,Finchley Road,London,NW3 5ES,4613,Retailers - other,423881,FHRS,,,,Exempt,13/04/2012,False,14133,506,Camden,planningandpublicprotection@camden.gov.uk,http://www.camden.gov.uk,E05000133,Frognal and Fitzjohns,526538,184500,-0.176605,51.545218,Unknown,08/05/2016,"(51.545218, -0.176605)",103
Harry's Hot Potatoes,"Pitch 123, Leather Lane Market",Leather Lane,London,,7844,Takeaway/sandwich shop,425693,FHRS,5,5,10,4,01/03/2012,False,59670,506,Camden,planningandpublicprotection@camden.gov.uk,http://www.camden.gov.uk,,,,,,,Unknown,08/05/2016,,1030
Hart & Lova Bakery,,213a Belsize Road,,NW6 4AA,1,Restaurant/Cafe/Canteen,773819,FHRS,5,5,5,5,02/06/2015,False,79528,506,Camden,planningandpublicprotection@camden.gov.uk,http://www.camden.gov.uk,E05000140,Kilburn,525580,183709,-0.190708,51.538332,Unknown,08/05/2016,"(51.538332, -0.190708)",1031
Hason Raja,,84      Southampton Row,London,WC1B 4BB,1,Restaurant/Cafe/Canteen,423726,FHRS,15,15,20,1,17/08/2015,False,11165,506,Camden,planningandpublicprotection@camden.gov.uk,http://www.camden.gov.uk,E05000138,Holborn and Covent Garden,530405,181822,-0.121861,51.520281,Unknown,08/05/2016,"(51.520281, -0.121861)",1032
Hat & Tun,,3      Hatton Wall,London,EC1N 8HX,7843,Pub/bar/nightclub,425656,FHRS,5,5,5,5,23/08/2012,False,58967,506,Camden,planningandpublicprotection@camden.gov.uk,http://www.camden.gov.uk,E05000138,Holborn and Covent Garden,531338,182002,-0.108355,51.521674,Unknown,08/05/2016,"(51.521674, -0.108355)",1033
Hatton News,,12A      Leather Lane,London,EC1N 7SS,4613,Retailers - other,426532,FHRS,5,5,10,4,14/08/2009,False,9449,506,Camden,planningandpublicprotection@camden.gov.uk,http://www.camden.gov.uk,E05000138,Holborn and Covent Garden,531313,181697,-0.108842,51.518948,Unknown,08/05/2016,"(51.518948, -0.108842)",1034
Haverstock School,Haverstock School,24      Haverstock Hill,London,NW3 2BQ,7845,School/college/university,424144,FHRS,5,0,5,5,21/01/2013,False,20621,506,Camden,planningandpublicprotection@camden.gov.uk,http://www.camden.gov.uk,E05000136,Haverstock,528082,184497,-0.154366,51.544852,Unknown,08/05/2016,"(51.544852, -0.154366)",1035
Hawker,,11-13 Camden High Street,,NW1 7JE,1,Restaurant/Cafe/Canteen,773836,FHRS,5,5,10,4,02/07/2015,False,82574,506,Camden,planningandpublicprotection@camden.gov.uk,http://www.camden.gov.uk,E05000142,Regent's Park,529152,183431,-0.139335,51.535028,Unknown,08/05/2016,"(51.535028, -0.139335)",1036
Hawley Nursery & Infant School,Hawley Infant And Nursery Scho,Buck Street,London,NW1 8NJ,5,Hospitals/Childcare/Caring Premises,424558,FHRS,10,0,5,4,20/11/2015,False,26440,506,Camden,planningandpublicprotection@camden.gov.uk,http://www.camden.gov.uk,E05000130,Camden Town with Primrose Hill,528896,184038,-0.142802,51.540542,Unknown,08/05/2016,"(51.540542, -0.142802)",1037
Haysmacintyre,,26      Red Lion Square,,WC1R 4HQ,1,Restaurant/Cafe/Canteen,730225,FHRS,0,0,0,5,11/12/2014,False,78409,506,Camden,planningandpublicprotection@camden.gov.uk,http://www.camden.gov.uk,E05000138,Holborn and Covent Garden,530615,181768,-0.11887,51.519747,Unknown,08/05/2016,"(51.519747, -0.11887)",1038
Hazara Restaurant,,44-46      Belsize Lane,,NW3 5AR,1,Restaurant/Cafe/Canteen,653482,FHRS,5,10,10,3,24/03/2014,False,75577,506,Camden,planningandpublicprotection@camden.gov.uk,http://www.camden.gov.uk,E05000133,Frognal and Fitzjohns,526870,184979,-0.171647,51.549457,Unknown,08/05/2016,"(51.549457, -0.171647)",1039
Argos Distributors,,5      Gray's Inn Road,London,WC1X 8PH,4613,Retailers - other,426404,FHRS,,,,Exempt,05/02/2009,False,7495,506,Camden,planningandpublicprotection@camden.gov.uk,http://www.camden.gov.uk,E05000138,Holborn and Covent Garden,531097,181643,-0.111974,51.518504,Unknown,08/05/2016,"(51.518504, -0.111974)",104
Health Food Centre,,10-11      Warren Street,London,W1T 5LG,1,Restaurant/Cafe/Canteen,426436,FHRS,10,10,10,3,08/05/2012,False,7982,506,Camden,planningandpublicprotection@camden.gov.uk,http://www.camden.gov.uk,E05000129,Bloomsbury,529222,182227,-0.138768,51.524184,Unknown,08/05/2016,"(51.524184, -0.138768)",1040
Heath News,,41      South End Road,London,NW3 2PY,4613,Retailers - other,425528,FHRS,5,0,0,5,15/04/2009,False,57125,506,Camden,planningandpublicprotection@camden.gov.uk,http://www.camden.gov.uk,E05000135,Hampstead Town,527225,185602,-0.166305,51.554967,Unknown,08/05/2016,"(51.554967, -0.166305)",1041
Heath News Ltd,,1      Elm Terrace,London,NW3 2LL,4613,Retailers - other,424576,FHRS,10,5,5,4,16/01/2013,False,2674,506,Camden,planningandpublicprotection@camden.gov.uk,http://www.camden.gov.uk,E05000134,Gospel Oak,527349,185542,-0.164539,51.5544,Unknown,08/05/2016,"(51.5544, -0.164539)",1042
Hemstal Self Service,,61      Hemstal Road,London,NW6 2AD,4613,Retailers - other,425165,FHRS,10,5,10,3,07/02/2014,False,4982,506,Camden,planningandpublicprotection@camden.gov.uk,http://www.camden.gov.uk,E05000145,West Hampstead,525204,184382,-0.195874,51.544455,Unknown,08/05/2016,"(51.544455, -0.195874)",1043
Herald Tribune Kiosk,Pitch Junction New Oxford Stre,New Oxford Street,London,W1T 7RA,4613,Retailers - other,456892,FHRS,,,,Exempt,30/01/2012,False,35469,506,Camden,planningandpublicprotection@camden.gov.uk,http://www.camden.gov.uk,E05000129,Bloomsbury,529412,181817,-0.136172,51.520457,Unknown,08/05/2016,"(51.520457, -0.136172)",1045
Hercules Pillar,,18      Great Queen Street,London,WC2B 5DG,7843,Pub/bar/nightclub,423849,FHRS,0,10,0,4,26/04/2012,False,13745,506,Camden,planningandpublicprotection@camden.gov.uk,http://www.camden.gov.uk,E05000138,Holborn and Covent Garden,530503,181364,-0.120633,51.516143,Unknown,08/05/2016,"(51.516143, -0.120633)",1046
Hereward House School,,14      Strathray Gardens,London,NW3 4NY,7845,School/college/university,424391,FHRS,0,5,0,5,09/03/2010,False,22543,506,Camden,planningandpublicprotection@camden.gov.uk,http://www.camden.gov.uk,E05000128,Belsize,526992,184545,-0.170059,51.545521,Unknown,08/05/2016,"(51.545521, -0.170059)",1047
Hiba Express,,113      High Holborn,London,WC1V 6JJ,1,Restaurant/Cafe/Canteen,426320,FHRS,5,5,10,4,22/08/2012,False,71599,506,Camden,planningandpublicprotection@camden.gov.uk,http://www.camden.gov.uk,E05000138,Holborn and Covent Garden,530545,181562,-0.119955,51.517904,Unknown,08/05/2016,"(51.517904, -0.119955)",1048
High Holborn Residence,,178      High Holborn,London,WC1V 7AA,1,Restaurant/Cafe/Canteen,424257,FHRS,5,5,5,5,14/08/2008,False,21453,506,Camden,planningandpublicprotection@camden.gov.uk,http://www.camden.gov.uk,E05000138,Holborn and Covent Garden,530179,181311,-0.125319,51.515741,Unknown,08/05/2016,"(51.515741, -0.125319)",1049
Argos Distributors Ltd,,72-76      Camden High Street,London,NW1 0LT,4613,Retailers - other,423944,FHRS,,,,Exempt,14/05/2008,False,14989,506,Camden,planningandpublicprotection@camden.gov.uk,http://www.camden.gov.uk,E05000142,Regent's Park,529078,183620,-0.140332,51.536744,Unknown,08/05/2016,"(51.536744, -0.140332)",105
Highgate Childrens Centre,Unit 200 Highgate Studios,53-79      Highgate Road,London,NW5 1TL,5,Hospitals/Childcare/Caring Premises,424721,FHRS,10,5,10,3,16/10/2015,False,31695,506,Camden,planningandpublicprotection@camden.gov.uk,http://www.camden.gov.uk,E05000139,Kentish Town,528717,185466,-0.144846,51.553407,Unknown,08/05/2016,"(51.553407, -0.144846)",1050
Highgate Mental Health Hospital,Whittington Hospital Highgate Wing,Dartmouth Park Hill,,N19 5JG,7841,Other catering premises,720387,FHRS,0,5,0,5,04/09/2014,False,81859,506,Camden,planningandpublicprotection@camden.gov.uk,http://www.camden.gov.uk,E05000137,Highgate,528839,186969,-0.142537,51.566886,Unknown,08/05/2016,"(51.566886, -0.142537)",1051
Highgate Newtown Community Ctr,Highgate New Town Community Ce,25      Bertram Street,London,N19 5DQ,1,Restaurant/Cafe/Canteen,424017,FHRS,10,10,10,3,02/09/2014,True,196,506,Camden,planningandpublicprotection@camden.gov.uk,http://www.camden.gov.uk,E05000137,Highgate,528811,186535,-0.1431,51.562992,Unknown,08/05/2016,"(51.562992, -0.1431)",1052
Highgate Village Fruiterers,,3      Highgate High Street,London,N6 5JR,4613,Retailers - other,424000,FHRS,5,5,5,5,15/05/2008,False,1875,506,Camden,planningandpublicprotection@camden.gov.uk,http://www.camden.gov.uk,E05000137,Highgate,528581,187337,-0.146123,51.570252,Unknown,08/05/2016,"(51.570252, -0.146123)",1053
Hill Food & Wine,,165      Haverstock Hill,London,NW3 4QT,4613,Retailers - other,424755,FHRS,5,5,10,4,08/09/2010,False,3296,506,Camden,planningandpublicprotection@camden.gov.uk,http://www.camden.gov.uk,E05000128,Belsize,527366,185036,-0.164491,51.549849,Unknown,08/05/2016,"(51.549849, -0.164491)",1054
Hilton London Euston,,17-18      Upper Woburn Place,London,WC1H 0HT,7842,Hotel/bed & breakfast/guest house,426281,FHRS,5,5,5,5,12/02/2016,False,7092,506,Camden,planningandpublicprotection@camden.gov.uk,http://www.camden.gov.uk,E05000129,Bloomsbury,529789,182523,-0.130477,51.526714,Unknown,08/05/2016,"(51.526714, -0.130477)",1055
Hira & Sons Halal Butchers,,40      Chalton Street,London,NW1 1JB,4613,Retailers - other,426148,FHRS,5,10,10,3,01/10/2010,False,6783,506,Camden,planningandpublicprotection@camden.gov.uk,http://www.camden.gov.uk,E05000143,St Pancras and Somers Town,529838,182832,-0.129657,51.529488,Unknown,08/05/2016,"(51.529488, -0.129657)",1056
Hiro,,100      Boundary Road,London,NW8 0RH,1,Restaurant/Cafe/Canteen,424069,FHRS,5,5,10,4,04/07/2012,False,20196,506,Camden,planningandpublicprotection@camden.gov.uk,http://www.camden.gov.uk,E05000140,Kilburn,525942,183619,-0.185524,51.537434,Unknown,08/05/2016,"(51.537434, -0.185524)",1057
Hodge Jones and Allen,,174-178      North Gower Street,London,NW1 2NB,1,Restaurant/Cafe/Canteen,425373,FHRS,5,5,5,5,29/03/2011,False,54922,506,Camden,planningandpublicprotection@camden.gov.uk,http://www.camden.gov.uk,E05000142,Regent's Park,529339,182514,-0.136977,51.526745,Unknown,08/05/2016,"(51.526745, -0.136977)",1058
Hola Guacamole,West Yard,Camden Lock Place,,NW1 8AF,7844,Takeaway/sandwich shop,733738,FHRS,10,5,10,3,12/12/2014,False,82881,506,Camden,planningandpublicprotection@camden.gov.uk,http://www.camden.gov.uk,E05000130,Camden Town with Primrose Hill,528631,184085,-0.146604,51.541016,Unknown,08/05/2016,"(51.541016, -0.146604)",1059
Argyle Primary School,Argyle Primary School,Tonbridge Street,London,WC1H 9EG,7845,School/college/university,423991,FHRS,0,5,0,5,02/02/2016,False,1770,506,Camden,planningandpublicprotection@camden.gov.uk,http://www.camden.gov.uk,E05000141,King's Cross,530238,182761,-0.12392,51.528758,Unknown,08/05/2016,"(51.528758, -0.12392)",106
Hola Paella,39-41 Middle Yard,Camden Lock Place,,NW1 8AF,7844,Takeaway/sandwich shop,759333,FHRS,10,10,10,3,15/01/2015,False,80669,506,Camden,planningandpublicprotection@camden.gov.uk,http://www.camden.gov.uk,E05000130,Camden Town with Primrose Hill,528631,184084,-0.146604,51.541015,Unknown,08/05/2016,"(51.541015, -0.146604)",1060
Holborn Community Association,,35      Emerald Street,London,WC1N 3QL,1,Restaurant/Cafe/Canteen,667797,FHRS,10,10,10,3,28/04/2014,False,31478,506,Camden,planningandpublicprotection@camden.gov.uk,http://www.camden.gov.uk,E05000138,Holborn and Covent Garden,530697,181941,-0.117611,51.521283,Unknown,08/05/2016,"(51.521283, -0.117611)",1061
Holborn Whippet,,25-27      Sicilian Avenue,,WC1A 2QH,1,Restaurant/Cafe/Canteen,516229,FHRS,10,10,5,3,26/02/2013,False,74689,506,Camden,planningandpublicprotection@camden.gov.uk,http://www.camden.gov.uk,E05000138,Holborn and Covent Garden,530446,181613,-0.121348,51.518385,Unknown,08/05/2016,"(51.518385, -0.121348)",1062
Holiday Inn,,Coram Street,London,WC1N 1HT,7842,Hotel/bed & breakfast/guest house,426482,FHRS,5,15,10,2,11/05/2015,False,8731,506,Camden,planningandpublicprotection@camden.gov.uk,http://www.camden.gov.uk,E05000129,Bloomsbury,530176,182221,-0.125013,51.523911,Unknown,08/05/2016,"(51.523911, -0.125013)",1063
Holiday Inn (Kings Cross),,1      King's Cross Road,London,WC1X 9HX,4613,Retailers - other,426196,FHRS,0,0,0,5,22/11/2010,False,6879,506,Camden,planningandpublicprotection@camden.gov.uk,http://www.camden.gov.uk,E05000141,King's Cross,530950,182516,-0.113753,51.526392,Unknown,08/05/2016,"(51.526392, -0.113753)",1064
Holiday inn London Camden lock,,30      Jamestown Road,London,NW1 7BY,7842,Hotel/bed & breakfast/guest house,424910,FHRS,5,0,0,5,19/11/2010,False,39869,506,Camden,planningandpublicprotection@camden.gov.uk,http://www.camden.gov.uk,E05000130,Camden Town with Primrose Hill,528573,183991,-0.14746,51.540193,Unknown,08/05/2016,"(51.540193, -0.14746)",1065
Holland & Barratt,,42-44      Kilburn High Road,London,NW6 4HJ,4613,Retailers - other,424921,FHRS,5,10,0,4,17/09/2008,False,4048,506,Camden,planningandpublicprotection@camden.gov.uk,http://www.camden.gov.uk,E05000140,Kilburn,525444,183636,-0.192694,51.537706,Unknown,08/05/2016,"(51.537706, -0.192694)",1066
Holland & Barrett,,65      Tottenham Court Road,London,W1T 2EU,4613,Retailers - other,426026,FHRS,10,0,5,4,24/05/2010,False,64473,506,Camden,planningandpublicprotection@camden.gov.uk,http://www.camden.gov.uk,E05000129,Bloomsbury,529535,181788,-0.13442,51.520176,Unknown,08/05/2016,"(51.520176, -0.13442)",1067
Holland & Barrett,,29      Brunswick Centre,London,WC1N 1AE,4613,Retailers - other,425317,FHRS,0,0,0,5,25/02/2009,False,54117,506,Camden,planningandpublicprotection@camden.gov.uk,http://www.camden.gov.uk,E05000129,Bloomsbury,530240,182214,-0.124107,51.523842,Unknown,08/05/2016,"(51.523842, -0.124107)",1068
Holland & Barrett,,8      High Holborn,London,WC1V 6DR,4613,Retailers - other,425315,FHRS,5,5,5,5,08/09/2010,False,54105,506,Camden,planningandpublicprotection@camden.gov.uk,http://www.camden.gov.uk,E05000138,Holborn and Covent Garden,531097,181643,-0.111974,51.518504,Unknown,08/05/2016,"(51.518504, -0.111974)",1069
Arichoke Cafe,,96 Queen's Crescent,,NW5 4DY,7844,Takeaway/sandwich shop,817062,FHRS,15,15,10,2,13/10/2015,False,83813,506,Camden,planningandpublicprotection@camden.gov.uk,http://www.camden.gov.uk,E05000136,Haverstock,528290,185071,-0.151159,51.549963,Unknown,08/05/2016,"(51.549963, -0.151159)",107
Holland & Barrett Ltd,,21-23      Shorts Gardens,London,WC2H 9AS,4613,Retailers - other,423828,FHRS,5,5,5,5,20/01/2010,False,13403,506,Camden,planningandpublicprotection@camden.gov.uk,http://www.camden.gov.uk,E05000138,Holborn and Covent Garden,530126,181159,-0.126125,51.514379,Unknown,08/05/2016,"(51.514379, -0.126125)",1070
Holland & Barrett Retail Limit,14 Northways Parade,Finchley Road,London,NW3 5EN,4613,Retailers - other,424019,FHRS,5,10,5,4,18/10/2010,False,1966,506,Camden,planningandpublicprotection@camden.gov.uk,http://www.camden.gov.uk,E05000133,Frognal and Fitzjohns,526630,184429,-0.175304,51.544568,Unknown,08/05/2016,"(51.544568, -0.175304)",1071
Holland & Barrett Retail Ltd,,203      Camden High Street,London,NW1 7BT,4613,Retailers - other,425591,FHRS,5,10,10,3,19/11/2010,False,5801,506,Camden,planningandpublicprotection@camden.gov.uk,http://www.camden.gov.uk,E05000130,Camden Town with Primrose Hill,528864,183893,-0.143302,51.539246,Unknown,08/05/2016,"(51.539246, -0.143302)",1072
Holland and Barrett,Plaza House,191-209      Camden High Street,London,NW1 7PJ,4613,Retailers - other,426173,FHRS,5,5,5,5,31/01/2013,False,68126,506,Camden,planningandpublicprotection@camden.gov.uk,http://www.camden.gov.uk,E05000130,Camden Town with Primrose Hill,528882,183875,-0.143063,51.53908,Unknown,08/05/2016,"(51.53908, -0.143063)",1073
Holly Lodge Community Centre L,,30      Makepeace Avenue,London,N6 6HL,7841,Other catering premises,424015,FHRS,5,0,5,5,10/12/2015,False,1946,506,Camden,planningandpublicprotection@camden.gov.uk,http://www.camden.gov.uk,E05000137,Highgate,528446,186711,-0.148312,51.564657,Unknown,08/05/2016,"(51.564657, -0.148312)",1074
Holy Trinity C of E Primary School,Holy Trinity Primary School,Hartland Road,London,NW1 8DE,7845,School/college/university,423983,FHRS,10,5,5,4,15/01/2015,False,1755,506,Camden,planningandpublicprotection@camden.gov.uk,http://www.camden.gov.uk,E05000130,Camden Town with Primrose Hill,528715,184480,-0.145235,51.544555,Unknown,08/05/2016,"(51.544555, -0.145235)",1075
Holy Trinity School,Holy Trinity Primary School,Trinity Walk,London,NW3 5SQ,7845,School/college/university,424416,FHRS,0,0,5,5,11/01/2016,False,22674,506,Camden,planningandpublicprotection@camden.gov.uk,http://www.camden.gov.uk,E05000133,Frognal and Fitzjohns,526446,184601,-0.177908,51.546155,Unknown,08/05/2016,"(51.546155, -0.177908)",1076
Homeslice Ltd,,13      Neal's Yard,,WC2H 9DP,1,Restaurant/Cafe/Canteen,571666,FHRS,10,10,10,3,13/05/2013,False,77415,506,Camden,planningandpublicprotection@camden.gov.uk,http://www.camden.gov.uk,E05000138,Holborn and Covent Garden,530109,181179,-0.126376,51.514571,Unknown,08/05/2016,"(51.514571, -0.126376)",1077
Honey & Co,,25      Warren Street,,W1T 5LZ,1,Restaurant/Cafe/Canteen,470870,FHRS,10,10,5,3,15/07/2015,False,74236,506,Camden,planningandpublicprotection@camden.gov.uk,http://www.camden.gov.uk,E05000129,Bloomsbury,529079,182176,-0.140833,51.523758,Unknown,08/05/2016,"(51.523758, -0.140833)",1079
Aroma Spice,,98      Fleet Road,London,NW3 2QX,1,Restaurant/Cafe/Canteen,424587,FHRS,5,10,5,4,19/04/2012,False,2696,506,Camden,planningandpublicprotection@camden.gov.uk,http://www.camden.gov.uk,E05000134,Gospel Oak,527451,185478,-0.163092,51.553802,Unknown,08/05/2016,"(51.553802, -0.163092)",108
Hot Pepper Cafe,,142      Drummond Street,London,NW1 2PA,1,Restaurant/Cafe/Canteen,426273,FHRS,5,5,5,5,30/01/2012,False,7033,506,Camden,planningandpublicprotection@camden.gov.uk,http://www.camden.gov.uk,E05000142,Regent's Park,529270,182517,-0.13797,51.526779,Unknown,08/05/2016,"(51.526779, -0.13797)",1081
Hot Rock Cafe,,6A      Camden Road,London,NW1 9DL,1,Restaurant/Cafe/Canteen,425133,FHRS,5,0,10,4,14/09/2012,False,4858,506,Camden,planningandpublicprotection@camden.gov.uk,http://www.camden.gov.uk,E05000130,Camden Town with Primrose Hill,528954,183902,-0.142002,51.539306,Unknown,08/05/2016,"(51.539306, -0.142002)",1082
Hotel California,,4-8      Belgrove Street,London,WC1H 8AB,7842,Hotel/bed & breakfast/guest house,426362,FHRS,5,5,10,4,28/03/2012,False,7233,506,Camden,planningandpublicprotection@camden.gov.uk,http://www.camden.gov.uk,E05000141,King's Cross,530257,182863,-0.123609,51.529662,Unknown,08/05/2016,"(51.529662, -0.123609)",1083
Hotel Chocolat,,4      Monmouth Street,London,WC2H 9EA,1,Restaurant/Cafe/Canteen,426346,FHRS,10,5,10,3,05/11/2012,False,71873,506,Camden,planningandpublicprotection@camden.gov.uk,http://www.camden.gov.uk,,,,,,,Unknown,08/05/2016,,1084
Hotel Chocolat,"Unit Cg04b Western Concourse, Kings Cross Railway Station",Euston Road,,N1 9AP,4613,Retailers - other,470876,FHRS,0,5,5,5,24/04/2012,False,74321,506,Camden,planningandpublicprotection@camden.gov.uk,http://www.camden.gov.uk,,,,,,,Unknown,08/05/2016,,1085
Hotel Meridiana,,43-46      Argyle Square,London,WC1H 8AL,7842,Hotel/bed & breakfast/guest house,425010,FHRS,5,5,5,5,26/01/2012,False,44341,506,Camden,planningandpublicprotection@camden.gov.uk,http://www.camden.gov.uk,E05000141,King's Cross,530308,182788,-0.122902,51.528976,Unknown,08/05/2016,"(51.528976, -0.122902)",1086
Hotel Montana,,16-18      Argyle Square,London,WC1H 8AS,7842,Hotel/bed & breakfast/guest house,426367,FHRS,5,0,5,5,12/10/2012,False,7244,506,Camden,planningandpublicprotection@camden.gov.uk,http://www.camden.gov.uk,E05000141,King's Cross,530387,182808,-0.12177,51.529146,Unknown,08/05/2016,"(51.529146, -0.12177)",1087
Hotel Russell,Hotel Russell,1-8      Russell Square,London,WC1B 5BE,7842,Hotel/bed & breakfast/guest house,426484,FHRS,5,5,5,5,18/12/2012,False,8749,506,Camden,planningandpublicprotection@camden.gov.uk,http://www.camden.gov.uk,E05000129,Bloomsbury,530178,182079,-0.12505,51.522643,Unknown,08/05/2016,"(51.522643, -0.12505)",1088
House & Home,,224-228      Kentish Town Road,London,NW5 2AD,4613,Retailers - other,424270,FHRS,5,10,10,3,08/01/2012,False,21607,506,Camden,planningandpublicprotection@camden.gov.uk,http://www.camden.gov.uk,E05000131,Cantelowes,528999,184901,-0.140988,51.548265,Unknown,08/05/2016,"(51.548265, -0.140988)",1089
Arosfa Hotel,,83      Gower Street,London,WC1E 6HJ,7842,Hotel/bed & breakfast/guest house,426476,FHRS,5,5,10,4,14/02/2012,False,8536,506,Camden,planningandpublicprotection@camden.gov.uk,http://www.camden.gov.uk,E05000129,Bloomsbury,529682,181972,-0.132221,51.521787,Unknown,08/05/2016,"(51.521787, -0.132221)",109
House of Mistry,,15-17      South End Road,London,NW3 2PT,4613,Retailers - other,423954,FHRS,,,,Exempt,02/07/2010,False,15513,506,Camden,planningandpublicprotection@camden.gov.uk,http://www.camden.gov.uk,E05000135,Hampstead Town,527252,185548,-0.165949,51.554476,Unknown,08/05/2016,"(51.554476, -0.165949)",1090
Houspresso,,1A      Mansfield Road,,NW3 2JD,7844,Takeaway/sandwich shop,425742,FHRS,5,5,5,5,14/05/2009,False,60394,506,Camden,planningandpublicprotection@camden.gov.uk,http://www.camden.gov.uk,E05000134,Gospel Oak,528263,185610,-0.151338,51.554813,Unknown,08/05/2016,"(51.554813, -0.151338)",1091
Howard Winchester Hotel,,9      Argyle Square,London,WC1H 8AS,7842,Hotel/bed & breakfast/guest house,424031,FHRS,0,0,10,4,24/08/2009,False,20040,506,Camden,planningandpublicprotection@camden.gov.uk,http://www.camden.gov.uk,E05000141,King's Cross,530387,182808,-0.12177,51.529146,Unknown,08/05/2016,"(51.529146, -0.12177)",1092
Hudsons House,St Giles Hotel,Bedford Avenue,,WC1B 3AS,7843,Pub/bar/nightclub,730228,FHRS,5,5,10,4,27/03/2014,False,80158,506,Camden,planningandpublicprotection@camden.gov.uk,http://www.camden.gov.uk,E05000129,Bloomsbury,529848,181583,-0.129986,51.518261,Unknown,08/05/2016,"(51.518261, -0.129986)",1093
Hummus Brothers Limited,unit 3a Victoria House,37-63      Southampton Row,London,WC1B 4DA,1,Restaurant/Cafe/Canteen,425381,FHRS,10,10,10,3,09/10/2012,False,55055,506,Camden,planningandpublicprotection@camden.gov.uk,http://www.camden.gov.uk,E05000138,Holborn and Covent Garden,530388,181704,-0.12215,51.519216,Unknown,08/05/2016,"(51.519216, -0.12215)",1095
Hummy Yummy,,243 Kentish Town Road,,NW5 2JT,1,Restaurant/Cafe/Canteen,704083,FHRS,10,10,10,3,05/08/2015,False,81672,506,Camden,planningandpublicprotection@camden.gov.uk,http://www.camden.gov.uk,E05000139,Kentish Town,528963,184891,-0.14151,51.548192,Unknown,08/05/2016,"(51.548192, -0.14151)",1096
Hungerdog,,21a Camden High Street,,NW1 7JE,7844,Takeaway/sandwich shop,849910,FHRS,15,15,20,1,09/02/2016,False,83693,506,Camden,planningandpublicprotection@camden.gov.uk,http://www.camden.gov.uk,E05000142,Regent's Park,529152,183432,-0.139335,51.535029,Unknown,08/05/2016,"(51.535029, -0.139335)",1097
Hush Brasseries Holborn,,95-96      High Holborn,,WC1V 6LF,1,Restaurant/Cafe/Canteen,470871,FHRS,5,5,5,5,29/05/2015,False,74245,506,Camden,planningandpublicprotection@camden.gov.uk,http://www.camden.gov.uk,E05000138,Holborn and Covent Garden,530629,181608,-0.118714,51.518298,Unknown,08/05/2016,"(51.518298, -0.118714)",1098
Hyelm Youth Movement,,79      Fitzjohn's Avenue,London,NW3 6PA,1,Restaurant/Cafe/Canteen,424200,FHRS,0,5,0,5,10/07/2012,False,20978,506,Camden,planningandpublicprotection@camden.gov.uk,http://www.camden.gov.uk,E05000133,Frognal and Fitzjohns,526437,185506,-0.177713,51.55429,Unknown,08/05/2016,"(51.55429, -0.177713)",1099
ACCA,,29      Lincoln's Inn Fields,London,WC2A 3EE,1,Restaurant/Cafe/Canteen,667791,FHRS,5,5,0,5,28/03/2014,False,13878,506,Camden,planningandpublicprotection@camden.gov.uk,http://www.camden.gov.uk,E05000138,Holborn and Covent Garden,530831,181511,-0.11584,51.517388,Unknown,08/05/2016,"(51.517388, -0.11584)",11
Arran House Hotel,,77-79      Gower Street,London,WC1E 6HJ,7842,Hotel/bed & breakfast/guest house,426475,FHRS,5,5,10,4,11/10/2012,False,8534,506,Camden,planningandpublicprotection@camden.gov.uk,http://www.camden.gov.uk,E05000129,Bloomsbury,529682,181972,-0.132221,51.521787,Unknown,08/05/2016,"(51.521787, -0.132221)",110
I Love Nata,,61 Endell Street,,WC2H 9AJ,7844,Takeaway/sandwich shop,849908,FHRS,5,5,5,5,02/02/2016,False,83480,506,Camden,planningandpublicprotection@camden.gov.uk,http://www.camden.gov.uk,E05000138,Holborn and Covent Garden,530153,181232,-0.125723,51.515029,Unknown,08/05/2016,"(51.515029, -0.125723)",1100
I.S.Vig,,78      Mansfield Road,London,NW3 2HU,7841,Other catering premises,424306,FHRS,5,10,5,4,25/02/2015,False,21911,506,Camden,planningandpublicprotection@camden.gov.uk,http://www.camden.gov.uk,E05000134,Gospel Oak,528009,185521,-0.155046,51.554071,Unknown,08/05/2016,"(51.554071, -0.155046)",1101
ITSU,,41-44      Great Queen Street,London,WC2B 5AA,1,Restaurant/Cafe/Canteen,425786,FHRS,0,5,0,5,02/07/2015,False,60913,506,Camden,planningandpublicprotection@camden.gov.uk,http://www.camden.gov.uk,E05000138,Holborn and Covent Garden,530416,181251,-0.121914,51.515147,Unknown,08/05/2016,"(51.515147, -0.121914)",1102
ITSU,,53-54      Tottenham Court Road,,W1T 2EJ,7844,Takeaway/sandwich shop,610998,FHRS,5,0,5,5,26/02/2015,False,77668,506,Camden,planningandpublicprotection@camden.gov.uk,http://www.camden.gov.uk,E05000129,Bloomsbury,529602,181714,-0.133482,51.519487,Unknown,08/05/2016,"(51.519487, -0.133482)",1104
ITSU,,103      Tottenham Court Road,London,W1T 4TT,1,Restaurant/Cafe/Canteen,425659,FHRS,0,0,5,5,17/03/2015,False,59045,506,Camden,planningandpublicprotection@camden.gov.uk,http://www.camden.gov.uk,E05000129,Bloomsbury,529366,182058,-0.136755,51.522641,Unknown,08/05/2016,"(51.522641, -0.136755)",1105
ITSU Brunswick Centre,,16 Brunswick Centre,,WC1N 1AE,7844,Takeaway/sandwich shop,688199,FHRS,5,0,5,5,01/07/2014,False,79644,506,Camden,planningandpublicprotection@camden.gov.uk,http://www.camden.gov.uk,E05000129,Bloomsbury,530240,182214,-0.124107,51.523842,Unknown,08/05/2016,"(51.523842, -0.124107)",1106
Ibis Hotel Euston,,3      Cardington Street,London,NW1 2LW,7842,Hotel/bed & breakfast/guest house,426242,FHRS,5,0,0,5,19/11/2010,False,6989,506,Camden,planningandpublicprotection@camden.gov.uk,http://www.camden.gov.uk,E05000142,Regent's Park,529424,182624,-0.135698,51.527714,Unknown,08/05/2016,"(51.527714, -0.135698)",1107
Icco Pizza,,46      Goodge Street,London,W1T 4LU,1,Restaurant/Cafe/Canteen,424636,FHRS,5,5,5,5,14/09/2012,False,29070,506,Camden,planningandpublicprotection@camden.gov.uk,http://www.camden.gov.uk,E05000129,Bloomsbury,529420,181705,-0.136107,51.519456,Unknown,08/05/2016,"(51.519456, -0.136107)",1108
Iceland,,301-305      Kentish Town Road,London,NW5 2TJ,7840,Retailers - supermarkets/hypermarkets,424271,FHRS,5,5,5,5,06/06/2014,False,21625,506,Camden,planningandpublicprotection@camden.gov.uk,http://www.camden.gov.uk,E05000139,Kentish Town,528980,185137,-0.141189,51.550399,Unknown,08/05/2016,"(51.550399, -0.141189)",1109
Arriva Hotel,,47-55      Swinton Street,London,WC1X 9NT,7842,Hotel/bed & breakfast/guest house,535605,FHRS,10,10,10,3,13/03/2013,False,40452,506,Camden,planningandpublicprotection@camden.gov.uk,http://www.camden.gov.uk,E05000141,King's Cross,530640,182777,-0.118122,51.528809,Unknown,08/05/2016,"(51.528809, -0.118122)",111
Iceland Foods Ltd,,177      Finchley Road,London,NW3 6LB,4613,Retailers - other,499647,FHRS,5,10,5,4,09/01/2013,False,73422,506,Camden,planningandpublicprotection@camden.gov.uk,http://www.camden.gov.uk,E05000144,Swiss Cottage,526398,184538,-0.178623,51.545591,Unknown,08/05/2016,"(51.545591, -0.178623)",1110
Ideal Sandwich Bar,,76A      Chancery Lane,London,WC2A 1AA,7844,Takeaway/sandwich shop,424121,FHRS,10,10,10,3,01/10/2013,False,20484,506,Camden,planningandpublicprotection@camden.gov.uk,http://www.camden.gov.uk,E05000138,Holborn and Covent Garden,530968,181568,-0.11386,51.51786,Unknown,08/05/2016,"(51.51786, -0.11386)",1112
Ideal Sandwich Bar,,4      Parker Street,London,WC2B 5PH,7844,Takeaway/sandwich shop,423847,FHRS,10,15,10,2,24/11/2014,False,13714,506,Camden,planningandpublicprotection@camden.gov.uk,http://www.camden.gov.uk,E05000138,Holborn and Covent Garden,530408,181270,-0.122036,51.51532,Unknown,08/05/2016,"(51.51532, -0.122036)",1113
Ideal Stores,,65-69      Werrington Street,London,NW1 1QP,4613,Retailers - other,424497,FHRS,10,10,20,1,04/09/2014,False,24696,506,Camden,planningandpublicprotection@camden.gov.uk,http://www.camden.gov.uk,E05000143,St Pancras and Somers Town,529537,183076,-0.133904,51.53175,Unknown,08/05/2016,"(51.53175, -0.133904)",1114
Ifor Evans Hall,Ifor Evans Hall,109      Camden Road,London,NW1 9HZ,1,Restaurant/Cafe/Canteen,424101,FHRS,0,0,0,5,02/07/2010,False,20367,506,Camden,planningandpublicprotection@camden.gov.uk,http://www.camden.gov.uk,E05000131,Cantelowes,529405,184524,-0.135288,51.544793,Unknown,08/05/2016,"(51.544793, -0.135288)",1115
Ikura Japanese Restaurant,,91      Haverstock Hill,London,NW3 4RL,1,Restaurant/Cafe/Canteen,425477,FHRS,0,5,5,5,26/03/2012,False,56447,506,Camden,planningandpublicprotection@camden.gov.uk,http://www.camden.gov.uk,E05000128,Belsize,527783,184693,-0.158604,51.546681,Unknown,08/05/2016,"(51.546681, -0.158604)",1116
Il Fornello,Premier House,150      Southampton Row,London,WC1B 5BQ,1,Restaurant/Cafe/Canteen,424834,FHRS,10,10,10,3,22/08/2012,False,36030,506,Camden,planningandpublicprotection@camden.gov.uk,http://www.camden.gov.uk,,,,,,,Unknown,08/05/2016,,1117
Il Sugo,,1-3 Pratt Street,,NW1 0AE,1,Restaurant/Cafe/Canteen,688205,FHRS,10,10,10,3,29/04/2014,False,80544,506,Camden,planningandpublicprotection@camden.gov.uk,http://www.camden.gov.uk,E05000130,Camden Town with Primrose Hill,529071,183710,-0.140386,51.537554,Unknown,08/05/2016,"(51.537554, -0.140386)",1118
Illy's Supermarket,,44      Cricklewood Broadway,London,NW2 3ET,7840,Retailers - supermarkets/hypermarkets,426316,FHRS,5,10,10,3,25/04/2012,False,71484,506,Camden,planningandpublicprotection@camden.gov.uk,http://www.camden.gov.uk,E05000132,Fortune Green,524099,185371,-0.211452,51.553587,Unknown,08/05/2016,"(51.553587, -0.211452)",1119
Art 4 Fun,,172      West End Lane,London,NW6 1SD,4613,Retailers - other,424652,FHRS,,,,Exempt,11/05/2009,False,2984,506,Camden,planningandpublicprotection@camden.gov.uk,http://www.camden.gov.uk,E05000145,West Hampstead,525563,184786,-0.190556,51.548006,Unknown,08/05/2016,"(51.548006, -0.190556)",112
Imperial News & Gifts,,69-70      Russell Square,London,WC1B 5BA,4613,Retailers - other,426488,FHRS,5,5,5,5,05/08/2008,False,8782,506,Camden,planningandpublicprotection@camden.gov.uk,http://www.camden.gov.uk,E05000138,Holborn and Covent Garden,530244,182038,-0.124101,51.522251,Unknown,08/05/2016,"(51.522251, -0.124101)",1120
Indian Lounge,,343 Gray's Inn Road,,WC1X 8PX,7844,Takeaway/sandwich shop,779023,FHRS,20,15,20,0,14/07/2015,False,80449,506,Camden,planningandpublicprotection@camden.gov.uk,http://www.camden.gov.uk,E05000141,King's Cross,530395,182943,-0.121604,51.530357,Unknown,08/05/2016,"(51.530357, -0.121604)",1122
Indian Spice Shop,,115-117      Drummond Street,London,NW1 2HL,4613,Retailers - other,426264,FHRS,10,10,10,3,10/09/2014,False,7017,506,Camden,planningandpublicprotection@camden.gov.uk,http://www.camden.gov.uk,E05000142,Regent's Park,529359,182553,-0.136661,51.527082,Unknown,08/05/2016,"(51.527082, -0.136661)",1123
Indian Thai Foods,7 F G  The Stables Market,Chalk Farm Road,London,NW1 8AH,7844,Takeaway/sandwich shop,425154,FHRS,10,5,5,4,01/02/2016,False,49633,506,Camden,planningandpublicprotection@camden.gov.uk,http://www.camden.gov.uk,E05000130,Camden Town with Primrose Hill,528574,184192,-0.147372,51.541999,Unknown,08/05/2016,"(51.541999, -0.147372)",1124
Indonesian Food,,unit 735 Chalk farm road,,,7846,Mobile caterer,425837,FHRS,5,5,10,4,28/11/2009,False,61406,506,Camden,planningandpublicprotection@camden.gov.uk,http://www.camden.gov.uk,E05000136,Haverstock,528389,184313,-0.150002,51.54312,Unknown,08/05/2016,"(51.54312, -0.150002)",1125
Ingestre Road Community Centre,Ingestre Road Community Centre,Ingestre Road,London,NW5 1UX,4613,Retailers - other,424263,FHRS,15,10,10,2,30/01/2009,False,21538,506,Camden,planningandpublicprotection@camden.gov.uk,http://www.camden.gov.uk,E05000139,Kentish Town,528753,185772,-0.144229,51.556149,Unknown,08/05/2016,"(51.556149, -0.144229)",1126
Inhabition Cafe,,15      Chalk Farm Road,London,NW1 8AG,1,Restaurant/Cafe/Canteen,425407,FHRS,5,10,5,4,20/09/2013,False,55526,506,Camden,planningandpublicprotection@camden.gov.uk,http://www.camden.gov.uk,E05000130,Camden Town with Primrose Hill,528650,184222,-0.146266,51.542251,Unknown,08/05/2016,"(51.542251, -0.146266)",1127
Inparma,,10      Charlotte Place,London,W1T 1SH,1,Restaurant/Cafe/Canteen,426301,FHRS,5,0,5,5,05/10/2012,False,71329,506,Camden,planningandpublicprotection@camden.gov.uk,http://www.camden.gov.uk,E05000129,Bloomsbury,529440,181642,-0.135842,51.518877,Unknown,08/05/2016,"(51.518877, -0.135842)",1129
Art Cakes,,,,,7841,Other catering premises,425028,FHRS,0,0,10,4,17/06/2010,False,45268,506,Camden,planningandpublicprotection@camden.gov.uk,http://www.camden.gov.uk,,,,,,,Unknown,08/05/2016,,113
Inspiral Lounge,,250      Camden High Street,London,NW1 8QS,1,Restaurant/Cafe/Canteen,425625,FHRS,5,5,10,4,16/10/2015,False,58443,506,Camden,planningandpublicprotection@camden.gov.uk,http://www.camden.gov.uk,E05000130,Camden Town with Primrose Hill,528778,184096,-0.144481,51.54109,Unknown,08/05/2016,"(51.54109, -0.144481)",1130
Institute Of Education Nursery,Institute Of Education,55-59      Gordon Square,London,WC1H 0NU,5,Hospitals/Childcare/Caring Premises,424213,FHRS,0,0,5,5,21/03/2016,False,21117,506,Camden,planningandpublicprotection@camden.gov.uk,http://www.camden.gov.uk,E05000129,Bloomsbury,529867,182205,-0.12947,51.523847,Unknown,08/05/2016,"(51.523847, -0.12947)",1131
Institute of Child Health,,30      Guilford Street,London,WC1N 1EH,1,Restaurant/Cafe/Canteen,424528,FHRS,10,10,10,3,01/06/2012,False,25654,506,Camden,planningandpublicprotection@camden.gov.uk,http://www.camden.gov.uk,E05000138,Holborn and Covent Garden,530519,182155,-0.12011,51.523239,Unknown,08/05/2016,"(51.523239, -0.12011)",1132
Institute of Education,,20      Bedford Way,London,WC1H 0AP,7845,School/college/university,424048,FHRS,0,0,0,5,12/10/2007,False,20109,506,Camden,planningandpublicprotection@camden.gov.uk,http://www.camden.gov.uk,E05000129,Bloomsbury,529934,182166,-0.128519,51.523481,Unknown,08/05/2016,"(51.523481, -0.128519)",1133
International Hall,University Of London Internati,Lansdowne Terrace,London,WC1N 1AS,7842,Hotel/bed & breakfast/guest house,424078,FHRS,0,5,0,5,27/04/2012,False,20245,506,Camden,planningandpublicprotection@camden.gov.uk,http://www.camden.gov.uk,E05000141,King's Cross,530409,182189,-0.121682,51.52357,Unknown,08/05/2016,"(51.52357, -0.121682)",1134
International Lutheran Student,International Lutheran Centre,30      Thanet Street,London,WC1H 9QH,7842,Hotel/bed & breakfast/guest house,424400,FHRS,0,0,0,5,02/07/2010,False,22576,506,Camden,planningandpublicprotection@camden.gov.uk,http://www.camden.gov.uk,E05000141,King's Cross,530148,182571,-0.125287,51.527063,Unknown,08/05/2016,"(51.527063, -0.125287)",1135
Interserve FM,The Uclh Cancer Centre,Huntley Street,,WC1E 6AG,1,Restaurant/Cafe/Canteen,704063,FHRS,0,0,0,5,07/12/2015,False,73780,506,Camden,planningandpublicprotection@camden.gov.uk,http://www.camden.gov.uk,E05000129,Bloomsbury,529601,182000,-0.133391,51.522066,Unknown,08/05/2016,"(51.522066, -0.133391)",1136
Interserve FM Ltd,University College Hospital,235      Euston Road,London,NW1 2BU,1,Restaurant/Cafe/Canteen,423997,FHRS,5,5,5,5,05/02/2014,False,185,506,Camden,planningandpublicprotection@camden.gov.uk,http://www.camden.gov.uk,E05000129,Bloomsbury,529340,182307,-0.137025,51.524876,Unknown,08/05/2016,"(51.524876, -0.137025)",1137
Ippudo,,3 Central Saint Giles Piazza,,WC2H 8AB,1,Restaurant/Cafe/Canteen,717333,FHRS,5,10,5,4,13/10/2014,False,80155,506,Camden,planningandpublicprotection@camden.gov.uk,http://www.camden.gov.uk,E05000138,Holborn and Covent Garden,529978,181307,-0.128202,51.515743,Unknown,08/05/2016,"(51.515743, -0.128202)",1138
Isolabella,,45-46      Red Lion Street,London,WC1R 4PF,1,Restaurant/Cafe/Canteen,423761,FHRS,5,0,0,5,23/06/2008,False,11862,506,Camden,planningandpublicprotection@camden.gov.uk,http://www.camden.gov.uk,E05000138,Holborn and Covent Garden,530703,181783,-0.117583,51.519862,Unknown,08/05/2016,"(51.519862, -0.117583)",1139
Arthur Probsthain Bookshop,,41      Great Russell Street,London,WC1B 3PH,1,Restaurant/Cafe/Canteen,424833,FHRS,10,5,10,3,13/04/2012,False,36004,506,Camden,planningandpublicprotection@camden.gov.uk,http://www.camden.gov.uk,E05000138,Holborn and Covent Garden,530061,181541,-0.12692,51.517835,Unknown,08/05/2016,"(51.517835, -0.12692)",114
Istanbul Lahmacun,West Yard,Camden Lock Place,,NW1 8AF,7844,Takeaway/sandwich shop,726199,FHRS,10,5,10,3,30/10/2014,False,79846,506,Camden,planningandpublicprotection@camden.gov.uk,http://www.camden.gov.uk,E05000130,Camden Town with Primrose Hill,528631,184085,-0.146604,51.541016,Unknown,08/05/2016,"(51.541016, -0.146604)",1140
Itadaki Zen,,139      King's Cross Road,London,WC1X 9BJ,1,Restaurant/Cafe/Canteen,425778,FHRS,10,5,10,3,10/04/2012,False,60656,506,Camden,planningandpublicprotection@camden.gov.uk,http://www.camden.gov.uk,E05000141,King's Cross,530778,182861,-0.116117,51.529532,Unknown,08/05/2016,"(51.529532, -0.116117)",1141
Italia Uno,,91      Charlotte Street,London,W1T 4PX,1,Restaurant/Cafe/Canteen,423676,FHRS,10,10,10,3,04/11/2014,False,10444,506,Camden,planningandpublicprotection@camden.gov.uk,http://www.camden.gov.uk,E05000129,Bloomsbury,529346,181822,-0.13713,51.520516,Unknown,08/05/2016,"(51.520516, -0.13713)",1142
Italian Kitchen Ltd,,43      New Oxford Street,London,WC1A 1BH,1,Restaurant/Cafe/Canteen,423805,FHRS,10,10,5,3,21/03/2012,False,13120,506,Camden,planningandpublicprotection@camden.gov.uk,http://www.camden.gov.uk,E05000138,Holborn and Covent Garden,530181,181451,-0.125225,51.51699,Unknown,08/05/2016,"(51.51699, -0.125225)",1143
Italian Lira,,24      Boswell Street,London,WC1N 3BW,1,Restaurant/Cafe/Canteen,424067,FHRS,10,10,10,3,14/07/2014,False,20192,506,Camden,planningandpublicprotection@camden.gov.uk,http://www.camden.gov.uk,E05000138,Holborn and Covent Garden,530464,181880,-0.12099,51.52078,Unknown,08/05/2016,"(51.52078, -0.12099)",1144
Itsu Regent's Place,"Restaurant And Premises, Regent's Place",15-20 Hampstead Road,,NW1 3JA,1,Restaurant/Cafe/Canteen,653511,FHRS,5,5,5,5,08/02/2014,False,79890,506,Camden,planningandpublicprotection@camden.gov.uk,http://www.camden.gov.uk,,,,,,,Unknown,08/05/2016,,1145
Itsu new oxford street,"Shop And Premises At Basement And Ground Floor, Isis House",74      New Oxford Street,,WC1A 1EU,1,Restaurant/Cafe/Canteen,610997,FHRS,0,0,0,5,23/06/2015,False,76281,506,Camden,planningandpublicprotection@camden.gov.uk,http://www.camden.gov.uk,E05000129,Bloomsbury,530019,181451,-0.127558,51.517036,Unknown,08/05/2016,"(51.517036, -0.127558)",1146
J Murphy & Sons Ltd (Office Canteen),Hiview House (Office Canteen),Highgate Road,London,NW5 1TN,1,Restaurant/Cafe/Canteen,424835,FHRS,0,5,5,5,29/02/2016,False,3610,506,Camden,planningandpublicprotection@camden.gov.uk,http://www.camden.gov.uk,E05000139,Kentish Town,528600,185548,-0.146516,51.554179,Unknown,08/05/2016,"(51.554179, -0.146516)",1147
J Murphy and Sons Yard  (Yard Canteen),Hiview House,Highgate Road,London,NW5 1TN,1,Restaurant/Cafe/Canteen,426326,FHRS,10,10,5,3,07/02/2012,False,71625,506,Camden,planningandpublicprotection@camden.gov.uk,http://www.camden.gov.uk,E05000139,Kentish Town,528600,185548,-0.146516,51.554179,Unknown,08/05/2016,"(51.554179, -0.146516)",1148
J Restaurant,,148      Regent's Park Road,London,NW1 8XN,1,Restaurant/Cafe/Canteen,424719,FHRS,5,5,5,5,17/08/2012,False,31693,506,Camden,planningandpublicprotection@camden.gov.uk,http://www.camden.gov.uk,E05000130,Camden Town with Primrose Hill,527929,184121,-0.156708,51.541499,Unknown,08/05/2016,"(51.541499, -0.156708)",1149
Artigiano,,12A      Belsize Terrace,London,NW3 4AX,1,Restaurant/Cafe/Canteen,424562,FHRS,10,10,0,4,08/07/2013,False,26522,506,Camden,planningandpublicprotection@camden.gov.uk,http://www.camden.gov.uk,E05000128,Belsize,526908,184946,-0.171125,51.549152,Unknown,08/05/2016,"(51.549152, -0.171125)",115
J Sainsburys Plc,"Unit 1a, The O2 Centre",255      Finchley Road,London,NW3 6LU,7840,Retailers - supermarkets/hypermarkets,424475,FHRS,0,10,10,4,27/05/2015,False,24168,506,Camden,planningandpublicprotection@camden.gov.uk,http://www.camden.gov.uk,E05000145,West Hampstead,526196,184795,-0.181428,51.547954,Unknown,08/05/2016,"(51.547954, -0.181428)",1150
JD Wetherspoon Gatehouse,The Gate House,Highgate West Hill,,N6 6DB,7843,Pub/bar/nightclub,639838,FHRS,5,5,5,5,12/02/2014,False,77700,506,Camden,planningandpublicprotection@camden.gov.uk,http://www.camden.gov.uk,E05000137,Highgate,528260,187445,-0.150712,51.571304,Unknown,08/05/2016,"(51.571304, -0.150712)",1151
Jack Horner,,235-236      Tottenham Court Road,London,W1T 7QN,7843,Pub/bar/nightclub,426464,FHRS,5,0,0,5,04/02/2010,False,8445,506,Camden,planningandpublicprotection@camden.gov.uk,http://www.camden.gov.uk,E05000129,Bloomsbury,529696,181638,-0.132142,51.518782,Unknown,08/05/2016,"(51.518782, -0.132142)",1152
Jack O'Shea,,65 Regent's Park Road,,NW1 8XD,4613,Retailers - other,759347,FHRS,10,10,10,3,11/11/2014,False,81452,506,Camden,planningandpublicprotection@camden.gov.uk,http://www.camden.gov.uk,E05000130,Camden Town with Primrose Hill,527858,184048,-0.157757,51.540867,Unknown,08/05/2016,"(51.540867, -0.157757)",1153
Jack Taylor School,Jack Taylor School,Ainsworth Way,London,NW8 0SR,7845,School/college/university,424068,FHRS,5,5,5,5,22/01/2014,False,20195,506,Camden,planningandpublicprotection@camden.gov.uk,http://www.camden.gov.uk,E05000140,Kilburn,526082,183825,-0.183433,51.539254,Unknown,08/05/2016,"(51.539254, -0.183433)",1154
Jack's Kitchen,,227      Brecknock Road,London,N19 5AA,7844,Takeaway/sandwich shop,423867,FHRS,5,10,20,1,24/02/2015,False,14067,506,Camden,planningandpublicprotection@camden.gov.uk,http://www.camden.gov.uk,E05000139,Kentish Town,529171,185805,-0.138191,51.55635,Unknown,08/05/2016,"(51.55635, -0.138191)",1155
Jackson Bros,,69      Chetwynd Road,London,NW5 1DA,4613,Retailers - other,424442,FHRS,10,0,5,4,07/08/2008,True,2305,506,Camden,planningandpublicprotection@camden.gov.uk,http://www.camden.gov.uk,E05000137,Highgate,528896,186085,-0.142053,51.558929,Unknown,08/05/2016,"(51.558929, -0.142053)",1156
Jacques Wine Bar,Tavistock Hotel,46-55      Tavistock Square,London,WC1H 9EU,7843,Pub/bar/nightclub,425440,FHRS,0,0,5,5,28/03/2012,False,55992,506,Camden,planningandpublicprotection@camden.gov.uk,http://www.camden.gov.uk,E05000129,Bloomsbury,529945,182252,-0.128329,51.524251,Unknown,08/05/2016,"(51.524251, -0.128329)",1157
Jai News,,9      Warren Street,London,W1T 5LE,4613,Retailers - other,426435,FHRS,5,5,5,5,14/08/2008,False,7980,506,Camden,planningandpublicprotection@camden.gov.uk,http://www.camden.gov.uk,E05000129,Bloomsbury,529230,182229,-0.138652,51.5242,Unknown,08/05/2016,"(51.5242, -0.138652)",1158
Jala's Cards & News,,14      England's Lane,London,NW3 4TG,4613,Retailers - other,424168,FHRS,15,10,5,2,08/01/2014,False,20755,506,Camden,planningandpublicprotection@camden.gov.uk,http://www.camden.gov.uk,E05000128,Belsize,527579,184671,-0.161553,51.546521,Unknown,08/05/2016,"(51.546521, -0.161553)",1159
Artisserie,,188      Gray's Inn Road,London,WC1X 8EW,1,Restaurant/Cafe/Canteen,425672,FHRS,15,10,10,2,04/08/2015,False,59298,506,Camden,planningandpublicprotection@camden.gov.uk,http://www.camden.gov.uk,E05000138,Holborn and Covent Garden,530931,182134,-0.114169,51.522955,Unknown,08/05/2016,"(51.522955, -0.114169)",116
James Gubb,,85      Leather Lane,London,EC1N 7TS,4613,Retailers - other,426539,FHRS,0,5,10,4,23/01/2012,False,9552,506,Camden,planningandpublicprotection@camden.gov.uk,http://www.camden.gov.uk,E05000138,Holborn and Covent Garden,531203,181969,-0.110312,51.521409,Unknown,08/05/2016,"(51.521409, -0.110312)",1160
Jamon Jamon,,38      Parkway,London,NW1 7AH,1,Restaurant/Cafe/Canteen,425858,FHRS,15,15,20,1,17/05/2015,False,6165,506,Camden,planningandpublicprotection@camden.gov.uk,http://www.camden.gov.uk,E05000130,Camden Town with Primrose Hill,528770,183777,-0.144699,51.538225,Unknown,08/05/2016,"(51.538225, -0.144699)",1161
Jamon Jamon,,177      Haverstock Hill,London,NW3 4QS,1,Restaurant/Cafe/Canteen,424573,FHRS,10,10,5,3,06/10/2014,False,26699,506,Camden,planningandpublicprotection@camden.gov.uk,http://www.camden.gov.uk,E05000128,Belsize,527332,185067,-0.164956,51.550135,Unknown,08/05/2016,"(51.550135, -0.164956)",1162
Jamon-Jamon Restaurant,,3-5      Caxton Walk,London,WC2H 8PW,1,Restaurant/Cafe/Canteen,426191,FHRS,5,10,10,3,21/01/2016,False,68688,506,Camden,planningandpublicprotection@camden.gov.uk,http://www.camden.gov.uk,E05000138,Holborn and Covent Garden,529918,181097,-0.129157,51.513878,Unknown,08/05/2016,"(51.513878, -0.129157)",1163
Jamuna Halal Butchers Shop,,70      Plender Street,London,NW1 0LB,4613,Retailers - other,426009,FHRS,10,5,10,3,21/08/2012,False,6381,506,Camden,planningandpublicprotection@camden.gov.uk,http://www.camden.gov.uk,E05000143,St Pancras and Somers Town,529263,183585,-0.137665,51.536387,Unknown,08/05/2016,"(51.536387, -0.137665)",1164
Jays News Food & Wine,,128      Camden Road,London,NW1 9EE,4613,Retailers - other,424103,FHRS,10,10,10,3,03/03/2014,False,20371,506,Camden,planningandpublicprotection@camden.gov.uk,http://www.camden.gov.uk,E05000131,Cantelowes,529238,184229,-0.137803,51.54218,Unknown,08/05/2016,"(51.54218, -0.137803)",1165
Jayson News,,96      Robert Street,London,NW1 3QP,4613,Retailers - other,426221,FHRS,5,5,5,5,02/05/2008,False,6952,506,Camden,planningandpublicprotection@camden.gov.uk,http://www.camden.gov.uk,E05000142,Regent's Park,528880,182718,-0.143501,51.528683,Unknown,08/05/2016,"(51.528683, -0.143501)",1166
Jaz & Jul's ltd,"Unit 239, Webheath",Netherwood Street,London,NW6 2JX,7846,Mobile caterer,425894,FHRS,5,5,0,5,13/03/2015,False,61991,506,Camden,planningandpublicprotection@camden.gov.uk,http://www.camden.gov.uk,E05000140,Kilburn,525014,184504,-0.198569,51.545602,Unknown,08/05/2016,"(51.545602, -0.198569)",1167
Jazz Cafe,,5      Parkway,London,NW1 7PG,1,Restaurant/Cafe/Canteen,425832,FHRS,10,10,10,3,28/11/2013,False,6139,506,Camden,planningandpublicprotection@camden.gov.uk,http://www.camden.gov.uk,E05000130,Camden Town with Primrose Hill,528864,183820,-0.143343,51.53859,Unknown,08/05/2016,"(51.53859, -0.143343)",1168
Jenkins And Son,,78 Hampstead High Street,,NW3 1RE,4613,Retailers - other,759388,FHRS,5,5,5,5,10/03/2015,False,83539,506,Camden,planningandpublicprotection@camden.gov.uk,http://www.camden.gov.uk,E05000135,Hampstead Town,526534,185641,-0.176266,51.555481,Unknown,08/05/2016,"(51.555481, -0.176266)",1169
Artium Cafe Imperial Hotel,Imperial Hotel,61-66      Russell Square,London,WC1B 5BA,1,Restaurant/Cafe/Canteen,425428,FHRS,0,0,0,5,03/02/2012,False,55806,506,Camden,planningandpublicprotection@camden.gov.uk,http://www.camden.gov.uk,E05000138,Holborn and Covent Garden,530244,182038,-0.124101,51.522251,Unknown,08/05/2016,"(51.522251, -0.124101)",117
Jenkins Hotel,,45      Cartwright Gardens,London,WC1H 9EH,7842,Hotel/bed & breakfast/guest house,426308,FHRS,0,0,0,5,10/08/2008,False,7139,506,Camden,planningandpublicprotection@camden.gov.uk,http://www.camden.gov.uk,E05000141,King's Cross,529983,182544,-0.127674,51.526858,Unknown,08/05/2016,"(51.526858, -0.127674)",1170
Jeremy Bentham,,31      University Street,London,WC1E 6JL,7843,Pub/bar/nightclub,426470,FHRS,5,5,10,4,14/02/2012,False,8494,506,Camden,planningandpublicprotection@camden.gov.uk,http://www.camden.gov.uk,E05000129,Bloomsbury,529447,182169,-0.135534,51.523611,Unknown,08/05/2016,"(51.523611, -0.135534)",1171
Jerkkies,,12-13 Greville Street,,EC1N 8SB,1,Restaurant/Cafe/Canteen,854956,FHRS,5,10,5,4,25/02/2016,False,82637,506,Camden,planningandpublicprotection@camden.gov.uk,http://www.camden.gov.uk,E05000138,Holborn and Covent Garden,531403,181739,-0.10753,51.519304,Unknown,08/05/2016,"(51.519304, -0.10753)",1172
Jeroboams,,29      Heath Street,London,NW3 6TR,4613,Retailers - other,424159,FHRS,5,5,5,5,05/08/2009,False,2073,506,Camden,planningandpublicprotection@camden.gov.uk,http://www.camden.gov.uk,E05000133,Frognal and Fitzjohns,526346,185710,-0.178938,51.556135,Unknown,08/05/2016,"(51.556135, -0.178938)",1173
Jesmond Dene Hotel,,27-29      Argyle Street,London,WC1H 8EP,7842,Hotel/bed & breakfast/guest house,424037,FHRS,5,5,10,4,27/01/2015,False,20055,506,Camden,planningandpublicprotection@camden.gov.uk,http://www.camden.gov.uk,E05000141,King's Cross,530296,182762,-0.123098,51.528754,Unknown,08/05/2016,"(51.528754, -0.123098)",1174
Jesmond Hotel,,63      Gower Street,London,WC1E 6HJ,7842,Hotel/bed & breakfast/guest house,423937,FHRS,0,0,10,4,25/02/2011,False,14785,506,Camden,planningandpublicprotection@camden.gov.uk,http://www.camden.gov.uk,E05000129,Bloomsbury,529682,181972,-0.132221,51.521787,Unknown,08/05/2016,"(51.521787, -0.132221)",1175
Jika Jika,,152 North Gower Street,,NW1 2NG,1,Restaurant/Cafe/Canteen,773846,FHRS,5,10,10,3,27/05/2015,False,83819,506,Camden,planningandpublicprotection@camden.gov.uk,http://www.camden.gov.uk,E05000142,Regent's Park,529409,182421,-0.136002,51.525893,Unknown,08/05/2016,"(51.525893, -0.136002)",1176
Jinkichi Ltd,,73      Heath Street,London,NW3 6UG,1,Restaurant/Cafe/Canteen,424205,FHRS,5,5,10,4,12/06/2012,False,2104,506,Camden,planningandpublicprotection@camden.gov.uk,http://www.camden.gov.uk,E05000135,Hampstead Town,526366,185837,-0.178604,51.557272,Unknown,08/05/2016,"(51.557272, -0.178604)",1177
Joe and the Juice,Centre Point,103 New Oxford Street,,WC1A 1DD,1,Restaurant/Cafe/Canteen,667852,FHRS,5,10,5,4,19/03/2014,False,80196,506,Camden,planningandpublicprotection@camden.gov.uk,http://www.camden.gov.uk,E05000138,Holborn and Covent Garden,529886,181367,-0.129505,51.516303,Unknown,08/05/2016,"(51.516303, -0.129505)",1178
Joe's,,78-79      Chalk Farm Road,London,NW1 8AR,7843,Pub/bar/nightclub,759318,FHRS,10,15,10,2,17/03/2015,False,71689,506,Camden,planningandpublicprotection@camden.gov.uk,http://www.camden.gov.uk,E05000136,Haverstock,528262,184385,-0.151812,51.543804,Unknown,08/05/2016,"(51.543804, -0.151812)",1179
Arvinds,,51      Leather Lane,London,EC1N 7TJ,4613,Retailers - other,426534,FHRS,5,10,10,3,24/11/2010,False,9521,506,Camden,planningandpublicprotection@camden.gov.uk,http://www.camden.gov.uk,E05000138,Holborn and Covent Garden,531244,181864,-0.109774,51.520456,Unknown,08/05/2016,"(51.520456, -0.109774)",118
John Charlick Foods,,142      Gray's Inn Road,London,WC1X 8AX,1,Restaurant/Cafe/Canteen,426411,FHRS,0,5,10,4,24/09/2012,False,7635,506,Camden,planningandpublicprotection@camden.gov.uk,http://www.camden.gov.uk,E05000138,Holborn and Covent Garden,530983,182027,-0.113473,51.52199,Unknown,08/05/2016,"(51.52199, -0.113473)",1180
John Walker Chemist,"Unit 2-3, Medway Court",Judd Street,London,WC1H 9QX,4613,Retailers - other,426354,FHRS,,,,Exempt,11/08/2008,False,7221,506,Camden,planningandpublicprotection@camden.gov.uk,http://www.camden.gov.uk,E05000141,King's Cross,530195,182557,-0.124615,51.526926,Unknown,08/05/2016,"(51.526926, -0.124615)",1181
Jonathan Norris Ltd,,140 Fortess Road,,NW5 2HP,4613,Retailers - other,717334,FHRS,10,15,10,2,23/09/2015,False,81367,506,Camden,planningandpublicprotection@camden.gov.uk,http://www.camden.gov.uk,E05000139,Kentish Town,529135,185782,-0.138704,51.55616,Unknown,08/05/2016,"(51.55616, -0.138704)",1182
Josephines Restaurant,,4      Charlotte Street,London,W1T 2LP,1,Restaurant/Cafe/Canteen,423656,FHRS,0,10,10,4,07/03/2013,False,10122,506,Camden,planningandpublicprotection@camden.gov.uk,http://www.camden.gov.uk,E05000129,Bloomsbury,529548,181578,-0.13431,51.518277,Unknown,08/05/2016,"(51.518277, -0.13431)",1183
Journeys Friend,"Unit 2, Euston Station",Eversholt Street,London,NW1 2DU,4613,Retailers - other,424184,FHRS,10,10,10,3,22/11/2010,False,20836,506,Camden,planningandpublicprotection@camden.gov.uk,http://www.camden.gov.uk,E05000142,Regent's Park,529587,182735,-0.133309,51.528674,Unknown,08/05/2016,"(51.528674, -0.133309)",1184
Joys News & Wine,,3      Back Hill,London,EC1R 5EN,4613,Retailers - other,426541,FHRS,10,5,10,3,20/01/2010,False,9565,506,Camden,planningandpublicprotection@camden.gov.uk,http://www.camden.gov.uk,E05000138,Holborn and Covent Garden,531242,182068,-0.109727,51.52229,Unknown,08/05/2016,"(51.52229, -0.109727)",1185
Jumps Partnership Ltd,,206      Kilburn High Road,London,NW6 4JH,4613,Retailers - other,424943,FHRS,,,,Exempt,01/08/2008,False,4129,506,Camden,planningandpublicprotection@camden.gov.uk,http://www.camden.gov.uk,E05000140,Kilburn,525109,184078,-0.197365,51.541744,Unknown,08/05/2016,"(51.541744, -0.197365)",1186
Junction Tavern,,101      Fortess Road,London,NW5 1AG,7843,Pub/bar/nightclub,424698,FHRS,0,10,0,4,26/04/2012,False,31056,506,Camden,planningandpublicprotection@camden.gov.uk,http://www.camden.gov.uk,E05000139,Kentish Town,529029,185620,-0.140306,51.55472,Unknown,08/05/2016,"(51.55472, -0.140306)",1187
Just Hospitality Ltd,Offices And Premises At 5th Floor,125 Shaftesbury Avenue,,WC2H 8AD,1,Restaurant/Cafe/Canteen,773839,FHRS,0,5,5,5,28/05/2015,False,83597,506,Camden,planningandpublicprotection@camden.gov.uk,http://www.camden.gov.uk,E05000138,Holborn and Covent Garden,529940,181106,-0.128837,51.513954,Unknown,08/05/2016,"(51.513954, -0.128837)",1188
KFC,,149      Finchley Road,,NW3 6JH,7844,Takeaway/sandwich shop,507267,FHRS,5,0,5,5,30/01/2013,False,75496,506,Camden,planningandpublicprotection@camden.gov.uk,http://www.camden.gov.uk,E05000144,Swiss Cottage,526604,184374,-0.175713,51.544071,Unknown,08/05/2016,"(51.544071, -0.175713)",1189
Aryubi Express,,303      Finchley Road,London,NW3 6DT,7844,Takeaway/sandwich shop,425983,FHRS,5,15,10,2,10/01/2014,True,62989,506,Camden,planningandpublicprotection@camden.gov.uk,http://www.camden.gov.uk,E05000145,West Hampstead,526134,184981,-0.182269,51.54964,Unknown,08/05/2016,"(51.54964, -0.182269)",119
KFC,,239      Camden High Street,London,NW1 7BU,1,Restaurant/Cafe/Canteen,424093,FHRS,0,5,0,5,29/08/2012,False,20331,506,Camden,planningandpublicprotection@camden.gov.uk,http://www.camden.gov.uk,E05000130,Camden Town with Primrose Hill,528814,183993,-0.143986,51.540156,Unknown,08/05/2016,"(51.540156, -0.143986)",1190
Ka-Nhom,7c The Stables Market,Chalk Farm Road,,NW1 8AH,7844,Takeaway/sandwich shop,740233,FHRS,10,5,10,3,10/02/2015,False,79969,506,Camden,planningandpublicprotection@camden.gov.uk,http://www.camden.gov.uk,E05000130,Camden Town with Primrose Hill,528575,184192,-0.147371,51.541999,Unknown,08/05/2016,"(51.541999, -0.147371)",1191
Kalendar,,15A      Swain's Lane,London,N6 6QX,4613,Retailers - other,424011,FHRS,10,10,10,3,23/09/2013,False,1926,506,Camden,planningandpublicprotection@camden.gov.uk,http://www.camden.gov.uk,E05000137,Highgate,528339,186412,-0.14995,51.562003,Unknown,08/05/2016,"(51.562003, -0.14995)",1192
Kam Fung Chinese restaurant,,27      Red Lion Street,London,WC1R 4PS,1,Restaurant/Cafe/Canteen,423758,FHRS,15,20,20,0,29/03/2016,False,11858,506,Camden,planningandpublicprotection@camden.gov.uk,http://www.camden.gov.uk,E05000138,Holborn and Covent Garden,530744,181736,-0.11701,51.51943,Unknown,08/05/2016,"(51.51943, -0.11701)",1193
Kamps,,154      Tottenham Court Road,,W1T 7NG,7844,Takeaway/sandwich shop,639841,FHRS,5,5,5,5,03/06/2015,False,78803,506,Camden,planningandpublicprotection@camden.gov.uk,http://www.camden.gov.uk,E05000129,Bloomsbury,529356,182164,-0.136847,51.523587,Unknown,08/05/2016,"(51.523587, -0.136847)",1194
Kanada-Ya,,64 St Giles High Street,,WC2H 8LE,1,Restaurant/Cafe/Canteen,759345,FHRS,10,10,10,3,03/09/2014,False,81377,506,Camden,planningandpublicprotection@camden.gov.uk,http://www.camden.gov.uk,E05000138,Holborn and Covent Garden,530013,181278,-0.127722,51.515483,Unknown,08/05/2016,"(51.515483, -0.127722)",1195
Karavas Restaurant,,87-88      Plender Street,London,NW1 0JN,1,Restaurant/Cafe/Canteen,426012,FHRS,5,10,10,3,20/04/2012,False,6385,506,Camden,planningandpublicprotection@camden.gov.uk,http://www.camden.gov.uk,E05000142,Regent's Park,529181,183542,-0.138877,51.536011,Unknown,08/05/2016,"(51.536011, -0.138877)",1196
Kenilworth Hotel,,94-97      Great Russell Street,London,WC1B 3LB,7842,Hotel/bed & breakfast/guest house,423737,FHRS,5,10,0,4,17/05/2012,False,11342,506,Camden,planningandpublicprotection@camden.gov.uk,http://www.camden.gov.uk,E05000129,Bloomsbury,529979,181560,-0.128108,51.518025,Unknown,08/05/2016,"(51.518025, -0.128108)",1197
Kent Cafe,,137-139      Kentish Town Road,London,NW1 8PB,1,Restaurant/Cafe/Canteen,424889,FHRS,10,10,10,3,21/04/2012,False,3843,506,Camden,planningandpublicprotection@camden.gov.uk,http://www.camden.gov.uk,E05000130,Camden Town with Primrose Hill,528959,184464,-0.141738,51.544356,Unknown,08/05/2016,"(51.544356, -0.141738)",1198
Kentish Delight,,381      Kentish Town Road,London,NW5 2TJ,1,Restaurant/Cafe/Canteen,423911,FHRS,10,5,10,3,07/10/2014,False,14439,506,Camden,planningandpublicprotection@camden.gov.uk,http://www.camden.gov.uk,E05000139,Kentish Town,528980,185137,-0.141189,51.550399,Unknown,08/05/2016,"(51.550399, -0.141189)",1199
AMT Coffee,"Unit 3, Euston Station",Eversholt Street,London,NW1 2DU,7846,Mobile caterer,424986,FHRS,10,10,10,3,17/02/2012,False,43243,506,Camden,planningandpublicprotection@camden.gov.uk,http://www.camden.gov.uk,E05000142,Regent's Park,529587,182735,-0.133309,51.528674,Unknown,08/05/2016,"(51.528674, -0.133309)",12
Asadal,,227 High Holborn,London,WC1V 7EG,1,Restaurant/Cafe/Canteen,424919,FHRS,20,10,20,1,26/10/2015,False,40415,506,Camden,planningandpublicprotection@camden.gov.uk,http://www.camden.gov.uk,E05000138,Holborn and Covent Garden,530559,181516,-0.11977,51.517496,Unknown,08/05/2016,"(51.517496, -0.11977)",120
Kentish Kebab,,128      Kentish Town Road,London,NW1 9QB,7844,Takeaway/sandwich shop,639814,FHRS,10,10,10,3,06/02/2014,False,62442,506,Camden,planningandpublicprotection@camden.gov.uk,http://www.camden.gov.uk,E05000131,Cantelowes,528967,184668,-0.141548,51.546187,Unknown,08/05/2016,"(51.546187, -0.141548)",1200
Kentish Town Church CE Primary,Kentish Town Primary School,Islip Street,London,NW5 2TU,7845,School/college/university,424898,FHRS,0,0,0,5,26/04/2012,False,3874,506,Camden,planningandpublicprotection@camden.gov.uk,http://www.camden.gov.uk,E05000139,Kentish Town,529113,185067,-0.139284,51.549731,Unknown,08/05/2016,"(51.549731, -0.139284)",1201
Kentucky Fried Chicken,,242      Haverstock Hill,London,NW3 2AE,1,Restaurant/Cafe/Canteen,424250,FHRS,5,5,5,5,18/04/2016,False,21380,506,Camden,planningandpublicprotection@camden.gov.uk,http://www.camden.gov.uk,E05000135,Hampstead Town,527249,185230,-0.166093,51.551627,Unknown,08/05/2016,"(51.551627, -0.166093)",1202
Key Shop News,,227      Eversholt Street,London,NW1 1DE,4613,Retailers - other,426119,FHRS,5,5,5,5,08/08/2008,False,6698,506,Camden,planningandpublicprotection@camden.gov.uk,http://www.camden.gov.uk,E05000143,St Pancras and Somers Town,529320,183163,-0.136999,51.532573,Unknown,08/05/2016,"(51.532573, -0.136999)",1203
Khana Indian Restaurant,,68      Cricklewood Broadway,London,NW2 3EP,1,Restaurant/Cafe/Canteen,424141,FHRS,10,10,10,3,21/03/2016,False,20610,506,Camden,planningandpublicprotection@camden.gov.uk,http://www.camden.gov.uk,E05000132,Fortune Green,524055,185437,-0.212077,51.55419,Unknown,08/05/2016,"(51.55419, -0.212077)",1204
